,link,referencia,latitud,longitud,direccion,distrito,etapa,fecha_entrega,financiamiento,areas_comunes,tipo,tipologia,piso,dormitorios,area,precio
3151,https://nexoinmobiliario.pe/proyecto/venta-de-departamento-2747-quarzo-jesus-maria-lima-lima-ciudaris,QUARZO,-12.0748933,-77.0411692,Av. Cuba 538,Jesus Maria,En construcción,"31 de Julio, 2025",Banco Interbank,"['Gimnasio', 'Lobby', 'Sala de Niños', 'Sala de usos Múltiples', 'Terraza', 'Video vigilancia', 'Zona de Parrillas']",flat,Tipo 1,Pisos: Entre 2 al 23,1,48.10 m2,"S/ 445,000"
1654,https://nexoinmobiliario.pe/proyecto/venta-de-departamento-3336-prada-jesus-maria-lima-lima-maxx-grupo-inmobiliario,PRADA,-12.0795016,-77.0499914,AV TIZON Y BUENO 639,Jesus Maria,En planos,"21 de Diciembre, 2025",Banco Scotiabank,"['Jardin interior', 'Lobby', 'Sala de usos Múltiples', 'Terraza', 'Video vigilancia', 'Zona de Parrillas']",flat,TIPO 4 - 1104,Piso: 11,2,54.00 m2,"S/ 391,800"
467,https://nexoinmobiliario.pe/proyecto/venta-de-departamento-1631-aspiria-barranco-lima-lima-grupo-t&c,ASPIRIA,-12.139487578321152,-77.01943345939085,Av. El Sol Este 530,Barranco,En construcción,"31 de Julio, 2026",Financiamiento Propio,"['Área de juegos para niños', 'Areas verdes', 'Gimnasio', 'Lobby', 'Piscina', 'Sala de usos Múltiples', 'Salon Gourmet', 'Zona de Parrillas']",flat,TIPO 9,Pisos: Entre 2 al 12,2,24.47 m2,"S/ 255,106"
1993,https://nexoinmobiliario.pe/proyecto/venta-de-departamento-2132-amarelo-jesus-maria-lima-lima-abril-grupo-inmobiliario,Amarelo,-12.0820967,-77.05922509999999,Av. Brasil 2475,Jesus Maria,Entrega inmediata,"31 de Diciembre, 2023",Banco Interbank,"['Área de juegos para niños', 'Gimnasio', 'Jardin de niños', 'Lobby', 'Piscina', 'Sala de Niños', 'Sala de usos Múltiples']",flat,AM X04,"Pisos: 20, 26, 27",3,76.19 m2,"S/ 520,247"
1026,https://nexoinmobiliario.pe/proyecto/venta-de-departamento-3219-taller-miraflores-lima-lima-paz,Taller,-12.1129038,-77.0465743,CALLE TORIBIO POLO 450,Miraflores,En planos,"31 de Julio, 2026",Banco Interbank,"['Gimnasio', 'Lobby', 'Piscina', 'Zona de Parrillas']",flat,14,"Pisos: 3, 6, 10",2,66.88 m2,"S/ 587,652"
1073,https://nexoinmobiliario.pe/proyecto/venta-de-departamento-1810-dos-de-mayo-lince-lince-lima-lima-initalia,Dos de Mayo- Lince,-12.090064996564706,-77.03493570273388,Arenales 2570,Lince,Entrega inmediata,"31 de Julio, 2024",Banco Scotiabank,"['Areas verdes', 'Lobby', 'Piscina', 'Sala de usos Múltiples', 'Salon Gourmet', 'Techo Panorámico', 'Techos Ecológicos', 'Terraza', 'Video vigilancia', 'Zona de Lavandería', 'Zona de Parrillas']",flat,T-6,Pisos: Entre 4 al 16,2,53.69 m2,"S/ 423,400"
2808,https://nexoinmobiliario.pe/proyecto/venta-de-departamento-3403-aliaga-442-magdalena-del-mar-lima-lima-vive-plm,ALIAGA 442,-12.0953729,-77.0593799,JUAN DE ALIAGA 442,Magdalena Del Mar,En planos,"31 de Diciembre, 2025",BBVA,"['Área de juegos para niños', 'Lobby', 'Piscina', 'Sala Bar', 'Sala de Niños', 'Sala de usos Múltiples', 'Salon Gourmet', 'Terraza', 'Zona de Parrillas', 'Otros']",flat,T 13,Pisos: Entre 3 al 10,3,71.89 m2,"S/ 596,364"
3292,https://nexoinmobiliario.pe/proyecto/venta-de-departamento-2465-mama-ocllo-lince-lima-lima-flat,MAMA OCLLO,-12.0852268,-77.043916,Jr. Mama Ocllo 1937,Lince,Entrega inmediata,"15 de Julio, 2024",Banco Interbank,"['Gimnasio', 'Lobby', 'Sala Bar', 'Sala de usos Múltiples', 'Terraza', 'Zona de Parrillas', 'Otros']",flat,TIPO1,"Pisos: 9, 10, 11, 12",3,67.37 m2,"S/ 508,000"
1257,https://nexoinmobiliario.pe/proyecto/venta-de-departamento-2717-parque-escardo-san-miguel-lima-lima-capac-asociados,Parque Escardó,-12.0784958,-77.0961743,"José Gabriel Aguilar 260, San Miguel",San Miguel,En planos,"31 de Julio, 2025",Banco Scotiabank,['Lobby'],flat,1B,"Pisos: 3, 4, 10",3,79.25 m2,"S/ 526,316"
5630,https://nexoinmobiliario.pe/proyecto/venta-de-departamento-3334-residencial-green-life-chorrillos-lima-lima-verones-grupo-inmobiliario,Residencial Green Life,-12.176865728505682,-77.0041376935666,Los Gorriones 490,Chorrillos,En planos,"09 de Abril, 2026",Financiamiento Propio,"['Área de juegos para niños', 'Areas verdes', 'Ascensor directo', 'Gimnasio', 'Jardin de niños', 'Jardin interior', 'Lobby', 'Sala de usos Múltiples', 'Terraza', 'Zona de Parrillas', 'Otros']",duplex,813,Piso: 8,3,84.43 m2,"S/ 468,207"
3585,https://nexoinmobiliario.pe/proyecto/venta-de-departamento-3237-valle-grande-4-carabayllo-lima-lima-enacorp,VALLE GRANDE 4,-11.862355623377484,-77.05571705709315,Av. San Juan de Dios s/n Paradero Haras - Carabayllo,Carabayllo,En construcción,"01 de Noviembre, 2024",BBVA,"['Área de juegos para niños', 'Areas verdes', 'Parque privado', 'Sala de Niños', 'Sala de usos Múltiples', 'Otros']",flat,TIPO 27,Piso: 2,3,54.87 m2,"S/ 85,695"
3026,https://nexoinmobiliario.pe/proyecto/venta-de-departamento-3181-luce-jesus-maria-lima-lima-ditrenzzo,LUCE,-12.0847021,-77.0508069,Jirón Huáscar 2170,Jesus Maria,En construcción,"30 de Junio, 2025",Banco BCP,"['Jardin interior', 'Lobby', 'Terraza', 'Zona de Parrillas']",flat,X01,Piso: 6,2,60.46 m2,"S/ 490,306"
4435,https://nexoinmobiliario.pe/proyecto/venta-de-departamento-2258-s29-magdalena-del-mar-lima-lima-llosa-edificaciones-urban,S29,-12.096069,-77.05514079999999,Av. Salaverry 2900,Magdalena Del Mar,En construcción,"31 de Enero, 2025","Banco BCP, BBVA, Banco Pichincha, Banco Interbank, Banco Scotiabank","['Gimnasio', 'Lobby', 'Piscina', 'Salon Gourmet', 'Terraza', 'Zona de Lavandería', 'Zona de Parrillas', 'Otros']",flat,Tipo 8,"Pisos: 10, 12, 14",1,54.18 m2,"$ 152,307"
778,https://nexoinmobiliario.pe/proyecto/venta-de-departamento-2652-larco-791-miraflores-lima-lima-v&v-grupo-inmobiliario,LARCO 791,-12.1258119,-77.0293327,Av. Larco 791 - Miraflores,Miraflores,En construcción,"31 de Diciembre, 2025","Banco BCP, Otros","['Gimnasio', 'Lobby', 'Piscina', 'Sala Bar', 'Salon Gourmet', 'Terraza', 'Zona de Parrillas', 'Otros']",flat,Tipo T1-204,Piso: 2,3,75.55 m2,"S/ 806,000"
4571,https://nexoinmobiliario.pe/proyecto/venta-de-departamento-3358-central-home-chacarilla-santiago-de-surco-lima-lima-ee-inmobiliaria,Central Home Chacarilla,-12.112760461149128,-76.99036037001652,Cl. Monterrey 319,Santiago De Surco,En planos,"31 de Octubre, 2025",Banco BCP,"['Gimnasio', 'Lobby', 'Terraza', 'Zona de Lavandería', 'Zona de Parrillas']",flat,Dpto. 604,Piso: 6,2,82.31 m2,"$ 157,000"
5903,https://nexoinmobiliario.pe/proyecto/venta-de-departamento-2065-pinos-san-isidro-lima-lima-actual,Pinos,-12.0954457,-77.0365496,Calle Los Pinos 561,San Isidro,Entrega inmediata,"31 de Diciembre, 2023",Banco BCP,"['Gimnasio', 'Lobby', 'Sala de usos Múltiples', 'Terraza', 'Zona de Lavandería', 'Zona de Parrillas', 'Otros']",flat,TIPO A2,Piso: 1,1,44.88 m2,"S/ 624,200"
5135,https://nexoinmobiliario.pe/proyecto/venta-de-departamento-2940-amaranta-pueblo-libre-lima-lima-abril-grupo-inmobiliario,Amaranta,-12.0720557,-77.0628819,Av Bolivar 959,Pueblo Libre,En construcción,"30 de Enero, 2026",Banco Scotiabank,"['Área de juegos para niños', 'Gimnasio', 'Jardin de niños', 'Parque privado', 'Sala Bar', 'Sala de usos Múltiples', 'Terraza', 'Zona de Parrillas']",flat,AMT - 1704,Piso: 17,3,77.83 m2,"S/ 520,975"
3550,https://nexoinmobiliario.pe/proyecto/venta-de-departamento-2780-dorue-surquillo-lima-lima-desarrolladora,DORUÉ,-12.108786,-77.0255908,"Av. Domingo Orué 230, Surquillo",Surquillo,En construcción,"31 de Diciembre, 2025",Otros,"['Área de juegos para niños', 'Areas verdes', 'Gimnasio', 'Lobby', 'Parque privado', 'Sala Bar', 'Sala de Niños', 'Sala de usos Múltiples', 'Terraza', 'Zona de Lavandería', 'Zona de Parrillas', 'Otros']",flat,10,Pisos: Entre 7 al 17,2,68.50 m2,"S/ 516,000"
4041,https://nexoinmobiliario.pe/proyecto/venta-de-departamento-2511-miramar-etapa-ii-san-bartolo-lima-lima-octagon,Miramar Etapa II,-12.382257666090016,-76.78487423416375,Urbanización Casco Urbano San Bartolo Manzana Z 2 Lote 1,San Bartolo,En construcción,"30 de Septiembre, 2024",BBVA,"['Área de juegos para niños', 'Areas verdes', 'Cancha de Fulbito', 'Club House', 'Gimnasio', 'Jardin de niños', 'Lobby', 'Minimarket', 'Piscina', 'Video vigilancia', 'Zona de Parrillas', 'Otros']",flat,Tipo 2,Piso: 1,2,106.49 m2,"S/ 460,000"
1089,https://nexoinmobiliario.pe/proyecto/venta-de-departamento-2054-family-tower-2-bre%C3%B1a-lima-lima-quatro-inmobiliaria,Family Tower 2,-12.0577271,-77.049268,Avenida República de Portugal 686,Breña,Entrega inmediata,"28 de Febrero, 2023",Otros,"['Área de juegos para niños', 'Areas verdes', 'Gimnasio', 'Jardin interior', 'Lobby', 'Sala de Niños', 'Sala de usos Múltiples', 'Video vigilancia', 'Zona de Parrillas', 'Otros']",flat,F2,Pisos: 17 y 20,3,64.00 m2,"S/ 387,957"
4441,https://nexoinmobiliario.pe/proyecto/venta-de-departamento-3024-castellana-173-santiago-de-surco-lima-lima-ee-inmobiliaria,Castellana 173,-12.1304268,-77.0014315,Av. La Castellana 173,Santiago De Surco,En construcción,"30 de Abril, 2025",Banco BANBIF,"['Lobby', 'Terraza', 'Zona de Parrillas']",flat,Tipo 1,"Pisos: 3, 5, 6, 7",3,78.95 m2,"$ 155,000"
5818,https://nexoinmobiliario.pe/proyecto/venta-de-departamento-2570-henko-miraflores-lima-lima-inarco,HENKO,-12.1294641,-77.0258832,"Ca. Grimaldo Del Solar 701, esquina Ca. Manco Capac",Miraflores,En construcción,"15 de Marzo, 2025",BBVA,"['Gimnasio', 'Lobby', 'Piscina', 'Sala de usos Múltiples', 'Terraza', 'Zona de Parrillas']",flat,TIPO 4,"Pisos: 3, 4, 5, 7",1,63.23 m2,"S/ 730,000"
681,https://nexoinmobiliario.pe/proyecto/venta-de-departamento-3347-maximo-abril-jesus-maria-lima-lima-abril-grupo-inmobiliario,Máximo Abril,-12.071303,-77.0396927,Calle Máximo Abril 576,Jesus Maria,En planos,"30 de Noviembre, 2026",Banco Scotiabank,"['Areas verdes', 'Gimnasio', 'Lobby', 'Sala de Niños', 'Sala de usos Múltiples', 'Zona de Parrillas']",flat,MAX-102,Piso: 1,2,80.38 m2,"S/ 458,166"
446,https://nexoinmobiliario.pe/proyecto/venta-de-departamento-2849-vivapark-san-miguel-lima-lima-ecohabitat-desarrollo-inmobiliario,Vivapark,-12.0744566,-77.0959596,Alfredo Icaza Contreras 185,San Miguel,En planos,"01 de Noviembre, 2025",Banco BANBIF,"['Lobby', 'Otros']",duplex,TIPO D01,Piso: 6,4,155.12 m2,"S/ 814,614"
5064,https://nexoinmobiliario.pe/proyecto/venta-de-departamento-2730-emerald-pueblo-libre-2-pueblo-libre-lima-lima-fai-inmobiliaria,Emerald Pueblo Libre 2,-12.076693493713218,-77.0567324978256,Calle Jose Ugarteche 103 Pueblo Libre,Pueblo Libre,En construcción,"31 de Octubre, 2025",Banco BCP,"['Jardin de niños', 'Lobby', 'Sala Bar', 'Sala de Niños', 'Terraza', 'Video vigilancia', 'Zona de Parrillas', 'Otros']",flat,X8,"Pisos: 6, 7, 9",3,69.73 m2,"S/ 469,644"
5298,https://nexoinmobiliario.pe/proyecto/venta-de-departamento-3215-urban-heights-miraflores-lima-lima-edifica,Urban Heights,-12.1289342,-77.0225608,Avenida Paseo De La Republica 6143,Miraflores,En planos,"01 de Junio, 2026",Financiamiento Propio,"['Gimnasio', 'Jardin interior', 'Lobby', 'Piscina', 'Sala Bar', 'Zona de Lavandería', 'Otros']",flat,A4,Pisos: Entre 12 al 19,1,57.39 m2,"S/ 600,502"
2613,https://nexoinmobiliario.pe/proyecto/venta-de-departamento-2649-brasil-1396-pueblo-libre-lima-lima-icasa-inmobiliaria,BRASIL 1396,-12.072784357951802,-77.05229001995158,Av. Brasil 1396,Pueblo Libre,En construcción,"31 de Mayo, 2025",Financiamiento Propio,"['Área de juegos para niños', 'Sala de Niños', 'Sala de usos Múltiples', 'Terraza', 'Video vigilancia', 'Zona de Parrillas', 'Otros']",flat,MODELO 2K,Piso: 8,3,82.80 m2,"S/ 607,960"
2469,https://nexoinmobiliario.pe/proyecto/venta-de-departamento-2775-park-prado-la-victoria-lima-lima-gdc-inmobiliaria,Park Prado,-12.090106399953376,-77.02012972487617,Av Javier Prado Este 1035,La Victoria,En construcción,"31 de Julio, 2026",BBVA,"['Gimnasio', 'Karaoke', 'Lobby', 'Piscina', 'Sala Bar', 'Sala de Niños', 'Sauna', 'Zona de Lavandería', 'Zona de Parrillas', 'Otros']",flat,X03,Piso: 20,3,73.29 m2,"S/ 561,142"
3558,https://nexoinmobiliario.pe/proyecto/venta-de-departamento-2780-dorue-surquillo-lima-lima-desarrolladora,DORUÉ,-12.108786,-77.0255908,"Av. Domingo Orué 230, Surquillo",Surquillo,En construcción,"31 de Diciembre, 2025",Otros,"['Área de juegos para niños', 'Areas verdes', 'Gimnasio', 'Lobby', 'Parque privado', 'Sala Bar', 'Sala de Niños', 'Sala de usos Múltiples', 'Terraza', 'Zona de Lavandería', 'Zona de Parrillas', 'Otros']",flat,2008,Piso: 20,2,65.00 m2,"S/ 499,000"
4190,https://nexoinmobiliario.pe/proyecto/venta-de-departamento-2964-look-surquillo-surquillo-lima-lima-mahpsa--corporacion-inmobiliaria,Look Surquillo,-12.1193131,-77.0189623,Av. Mariscal Cáceres 621,Surquillo,En construcción,"30 de Septiembre, 2024",Banco BCP,"['Lobby', 'Piscina', 'Sala de cine', 'Sala de Internet', 'Sala de Niños', 'Salon Gourmet', 'Terraza', 'Zona de Lavandería', 'Zona de Parrillas']",flat,x09,Piso: 11,1,35.87 m2,"S/ 267,181"
5005,https://nexoinmobiliario.pe/proyecto/venta-de-departamento-3180-mum-363-magdalena-del-mar-lima-lima-tale-inmobiliaria,MUM 363,-12.0949881,-77.0552728,Av. Javier Prado Oeste 2291,Magdalena Del Mar,En planos,"31 de Diciembre, 2026",Otros,"['Área de juegos para niños', 'Gimnasio', 'Lobby', 'Piscina', 'Sala de Niños', 'Salon Gourmet', 'Zona de Parrillas', 'Otros']",flat,X1217,Piso: 12,2,71.37 m2,"S/ 617,000"
2890,https://nexoinmobiliario.pe/proyecto/venta-de-departamento-3006-los-parques-de-san-juan-san-juan-de-lurigancho-lima-lima-besco,LOS PARQUES DE SAN JUAN,-12.0178544,-76.9985631,Av. Portada Del Sol N°870 / 1050,San Juan De Lurigancho,En planos,"31 de Diciembre, 2024",BBVA,"['Areas verdes', 'Club House', 'Sala de Niños', 'Sala de usos Múltiples', 'Video vigilancia', 'Zona de Parrillas', 'Otros']",flat,ETAPA 2 - TORRE 4 - FLAT - Tipo 5- P1,Piso: 1,3,65.50 m2,"S/ 306,700"
1215,https://nexoinmobiliario.pe/proyecto/venta-de-departamento-2759-residencial-valenti-pueblo-libre-lima-lima-barqueros-inmobiliaria,Residencial Valenti,-12.0694418,-77.0679439,Calle América 260 - Pueblo libre,Pueblo Libre,En construcción,"30 de Junio, 2025",Banco BCP,"['Gimnasio', 'Lobby', 'Salon Gourmet', 'Terraza', 'Zona de Parrillas', 'Otros']",flat,TIPO 6,Pisos: Entre 1 al 11,1,50.69 m2,"S/ 321,871"
42,https://nexoinmobiliario.pe/proyecto/venta-de-departamento-2769-patio-la-paz-san-miguel-lima-lima-paz,Patio La Paz,-12.079547136588465,-77.10609539017598,Av. La Paz 2551,San Miguel,En planos,"30 de Diciembre, 2025",Banco Interbank,"['Área de juegos para niños', 'Gimnasio', 'Jardin interior', 'Lobby', 'Piscina', 'Sala de Niños', 'Zona de Lavandería', 'Zona de Parrillas', 'Otros']",flat,A7A,Piso: 1,3,86.20 m2,"S/ 412,565"
5762,https://nexoinmobiliario.pe/proyecto/venta-de-departamento-2817-kora-san-miguel-lima-lima-dkasa,Kora,-12.078791763493006,-77.10359574475686,Jirón Pascual de Andagoya 393,San Miguel,En construcción,"31 de Diciembre, 2024",Banco BCP,['Lobby'],flat,TIPO 02,"Pisos: 3, 6, 10",2,62.22 m2,"S/ 385,321"
1197,https://nexoinmobiliario.pe/proyecto/venta-de-departamento-2198-amalfi-san-miguel-lima-lima-paz,Amalfi,-12.0808219,-77.10702959999999,Av. Costanera 2558,San Miguel,En construcción,"31 de Julio, 2024",Banco Pichincha,"['Área de juegos para niños', 'Areas verdes', 'Ascensor directo', 'Boulevard peatonal', 'Gimnasio', 'Jardin interior', 'Lobby', 'Piscina', 'Sala Bar', 'Sala de Internet', 'Terraza', 'Zona de Lavandería', 'Zona de Parrillas', 'Otros']",flat,25,"Pisos: 12, 13, 15, 17",3,67.98 m2,"S/ 403,087"
4938,https://nexoinmobiliario.pe/proyecto/venta-de-departamento-2504-varela-living-bre%C3%B1a-lima-lima-grupo-tyc,VARELA LIVING,-12.0670046,-77.0528144,General Felipe Varela 1960,Breña,Entrega inmediata,"31 de Marzo, 2022",Financiamiento Propio,"['Área de juegos para niños', 'Club House', 'Gimnasio', 'Jardin de niños', 'Lobby', 'Piscina', 'Sala de Niños', 'Sala de usos Múltiples', 'Video vigilancia', 'Zona de Parrillas', 'Otros']",duplex,TIPO 2A,Piso: 16,2,111.03 m2,"S/ 616,147"
5147,https://nexoinmobiliario.pe/proyecto/venta-de-departamento-2940-amaranta-pueblo-libre-lima-lima-abril-grupo-inmobiliario,Amaranta,-12.0720557,-77.0628819,Av Bolivar 959,Pueblo Libre,En construcción,"30 de Enero, 2026",Banco Scotiabank,"['Área de juegos para niños', 'Gimnasio', 'Jardin de niños', 'Parque privado', 'Sala Bar', 'Sala de usos Múltiples', 'Terraza', 'Zona de Parrillas']",flat,AMT - 304 y 404,Pisos: 3 y 4,3,78.48 m2,"S/ 504,994"
2467,https://nexoinmobiliario.pe/proyecto/venta-de-departamento-2824-velvet-pueblo-libre-lima-lima-beca-inmobiliaria,Velvet,-12.069954,-77.06865599999999,General Ramón Pizarro 430,Pueblo Libre,En construcción,"31 de Diciembre, 2024",Banco Scotiabank,"['Lobby', 'Terraza', 'Zona de Parrillas']",duplex,Tipo 7,Piso: 11,3,112.30 m2,"S/ 752,000"
2839,https://nexoinmobiliario.pe/proyecto/venta-de-departamento-2244-astoria-jesus-maria-lima-lima-arteco,Astoria,-12.0714477473403,-77.03876676822587,Av. República de Chile 699,Jesus Maria,Entrega inmediata,"01 de Abril, 2024",Banco BCP,"['Área de juegos para niños', 'Gimnasio', 'Jardin de niños', 'Jardin interior', 'Lobby', 'Sala Bar', 'Sala de Internet', 'Sala de Niños', 'Sala de usos Múltiples', 'Terraza', 'Zona de Parrillas', 'Otros']",flat,Tipo 2,Pisos: 6 y 14,3,76.63 m2,"S/ 594,000"
6397,https://nexoinmobiliario.pe/proyecto/venta-de-departamento-2635-art-28-miraflores-lima-lima-edifica,ART 28,-12.1282224,-77.0255233,Av. 28 Julio 815 Miraflores,Miraflores,En construcción,"31 de Enero, 2025",Financiamiento Propio,"['Gimnasio', 'Jardin interior', 'Lobby', 'Piscina', 'Sala Bar', 'Zona de Lavandería', 'Otros']",flat,12,"Pisos: 12, 13, 14, 15",1,35.29 m2,"S/ 439,879"
49,https://nexoinmobiliario.pe/proyecto/venta-de-departamento-2727-concepto-urban-park-ii-cercado-de-lima-lima-lima-imagina,Concepto Urban Park,-12.0758939,-77.03461109999999,Av. Petit Thouars 1140,Cercado de lima,Entrega inmediata,"30 de Junio, 2024",Banco Scotiabank,"['Gimnasio', 'Jardin interior', 'Lobby', 'Piscina', 'Sala Bar', 'Sala de cine', 'Sala de Niños', 'Terraza', 'Zona de Parrillas', 'Otros']",flat,3D,Pisos: 18 y 19,3,86.38 m2,"S/ 610,148"
5285,https://nexoinmobiliario.pe/proyecto/venta-de-departamento-1740-hills-camacho-santiago-de-surco-lima-lima-grupo-t&c,HILLS CAMACHO,-12.078566200280472,-76.96516147133944,Av. javier prado este 294,Santiago De Surco,Entrega inmediata,"30 de Junio, 2024",Financiamiento Propio,"['Área de juegos para niños', 'Cuarto servicio', 'Gimnasio', 'Jardin de niños', 'Lobby', 'Piscina', 'Sala Bar', 'Sala de Niños', 'Sala de usos Múltiples', 'Salon Gourmet', 'Terraza', 'Zona de Parrillas']",flat,TIPO 7,Piso: 3,3,119.43 m2,"S/ 995,906"
3407,https://nexoinmobiliario.pe/proyecto/venta-de-departamento-3225-residencial-sienna-pueblo-libre-lima-lima-jk-inversiones-inmobiliarias,Residencial SIENNA,-12.0729067,-77.06636259999999,Jiron General Clovis 627,Pueblo Libre,En planos,"31 de Diciembre, 2025",Banco BCP,"['Lobby', 'Sala de Niños', 'Sala de usos Múltiples', 'Zona de Parrillas', 'Otros']",flat,C,"Pisos: 2, 5, 6, 7, 8",1,41.46 m2,"S/ 298,000"
1131,https://nexoinmobiliario.pe/proyecto/venta-de-departamento-2487-libertad-san-miguel-lima-lima-capac-asociados,Libertad,-12.0793846,-77.1040247,Av Libertad 2401,San Miguel,En planos,"30 de Noviembre, 2025",Banco Pichincha,"['Gimnasio', 'Lobby', 'Sala de Niños', 'Sala de usos Múltiples', 'Techo Panorámico', 'Terraza', 'Zona de Parrillas', 'Otros']",flat,BX103,Piso: 1,1,51.75 m2,"S/ 247,000"
643,https://nexoinmobiliario.pe/proyecto/venta-de-departamento-2846-san-felipe-towers-jesus-maria-lima-lima-vive-plm,San Felipe Towers,-12.082636800186645,-77.05047192092127,Av. San Felipe 720 esquina Jr. Huascar,Jesus Maria,Entrega inmediata,"31 de Agosto, 2024",BBVA,"['Área de juegos para niños', 'Areas verdes', 'Lobby', 'Piscina', 'Sala Bar', 'Sala de Internet', 'Sala de Niños', 'Techo Panorámico', 'Techos Ecológicos', 'Terraza', 'Video vigilancia', 'Zona de Parrillas']",flat,Gold T7,"Pisos: 15, 16, 17",2,66.10 m2,"S/ 538,100"
5144,https://nexoinmobiliario.pe/proyecto/venta-de-departamento-2940-amaranta-pueblo-libre-lima-lima-abril-grupo-inmobiliario,Amaranta,-12.0720557,-77.0628819,Av Bolivar 959,Pueblo Libre,En construcción,"30 de Enero, 2026",Banco Scotiabank,"['Área de juegos para niños', 'Gimnasio', 'Jardin de niños', 'Parque privado', 'Sala Bar', 'Sala de usos Múltiples', 'Terraza', 'Zona de Parrillas']",flat,AMT - 2203,Piso: 22,2,61.46 m2,"S/ 414,559"
2580,https://nexoinmobiliario.pe/proyecto/venta-de-departamento-2164-thu-miraflores-lima-lima-cantabria,Thu,-12.117073618264442,-77.04038586442256,Calle Enrique Palacios 1133,Miraflores,En construcción,"30 de Mayo, 2024","BBVA, Otros","['Areas verdes', 'Boulevard peatonal', 'Cuarto servicio', 'Jardin interior', 'Lobby', 'Parque privado', 'Piscina', 'Sala Bar', 'Sala de Niños', 'Sala de usos Múltiples', 'Techo Panorámico', 'Techos Ecológicos', 'Terraza', 'Zona de Parrillas']",flat,TIPO 4,"Pisos: 2, 5, 6, 9",2,81.68 m2,"S/ 830,000"
5352,https://nexoinmobiliario.pe/proyecto/venta-de-departamento-2965-santorini-cercado-de-lima-lima-lima-brazil-grupo-inmobiliario,Santorini,-12.073561795487,-77.03112064660345,Av. Alejandro Tirado 731,Cercado de lima,En construcción,"01 de Marzo, 2026",BBVA,"['Área de juegos para niños', 'Areas verdes', 'Boulevard peatonal', 'Gimnasio', 'Jardin interior', 'Lobby', 'Piscina', 'Sala Bar', 'Sala de cine', 'Sala de Niños', 'Sala de usos Múltiples', 'Terraza', 'Video vigilancia', 'Zona de Lavandería', 'Zona de Parrillas', 'Otros']",flat,S28,"Pisos: 3, 4, 5",3,77.00 m2,"S/ 484,696"
3492,https://nexoinmobiliario.pe/proyecto/venta-de-departamento-3402-nuna-miraflores-lima-lima-llosa-edificaciones-urban,NUNA,-12.1082176,-77.03357179999999,General borgoño 1102,Miraflores,En construcción,"31 de Julio, 2025",Banco BCP,"['Gimnasio', 'Lobby', 'Zona de Parrillas']",duplex,5,Piso: 1,2,93.63 m2,"$ 239,057"
4366,https://nexoinmobiliario.pe/proyecto/venta-de-departamento-2661-palm-living-san-isidro-lima-lima-grupo-t&c,PALM LIVING,-12.0927056,-77.0385929,Calle las Palmeras 291-San Isidro,San Isidro,En construcción,"31 de Octubre, 2026",Financiamiento Propio,"['Gimnasio', 'Jardin interior', 'Lobby', 'Piscina', 'Sala de Niños', 'Sala de usos Múltiples', 'Salon Gourmet', 'Terraza', 'Otros']",flat,TIPO 12,"Pisos: 15, 16, 17, 18, 19",2,75.18 m2,"S/ 665,059"
5330,https://nexoinmobiliario.pe/proyecto/venta-de-departamento-2620-midtown-la-victoria-lima-lima-arteco,Midtown,-12.087856099950043,-77.01112388075396,"Jirón Luis Sáenz 180, La Victoria 15034",La Victoria,En construcción,"31 de Diciembre, 2024",Banco Interbank,"['Área de juegos para niños', 'Gimnasio', 'Jardin de niños', 'Lobby', 'Sala Bar', 'Sala de cine', 'Sala de Internet', 'Sala de Niños', 'Sala de usos Múltiples', 'Salon Gourmet', 'Techo Panorámico', 'Terraza', 'Zona de Parrillas']",flat,TIPO 4,Piso: 14,3,63.91 m2,"S/ 522,000"
987,https://nexoinmobiliario.pe/proyecto/venta-de-departamento-2762-monte-mayor-177-santiago-de-surco-lima-lima-grupo-edifikarte,MONTE MAYOR 177,-12.1144915,-76.9868623,Monte Mayor 177 Surco,Santiago De Surco,Entrega inmediata,"31 de Agosto, 2024",Banco BCP,"['Areas verdes', 'Cuarto servicio', 'Lobby', 'Video vigilancia']",duplex,D,Piso: 7,3,171.49 m2,"S/ 1,495,000"
1161,https://nexoinmobiliario.pe/proyecto/venta-de-departamento-3289-marina-city-center-san-miguel-lima-lima-inverdes,Marina City Center,-12.07574716789446,-77.09247194744486,Av. Rafael Escardo Aguirre N° 530,San Miguel,En construcción,"31 de Diciembre, 2025",BBVA,"['Lobby', 'Parque privado', 'Piscina', 'Sala Bar', 'Salon Gourmet', 'Terraza', 'Video vigilancia', 'Zona de Parrillas']",flat,Tipo 1,Pisos: Entre 5 al 19,1,49.55 m2,"S/ 343,529"
3240,https://nexoinmobiliario.pe/proyecto/venta-de-departamento-2583-top-818-surquillo-lima-lima-inhouse,TOP 818,-12.1191429,-77.00485929999999,Av principal 818,Surquillo,En construcción,"31 de Diciembre, 2024",Banco Interbank,"['Área de juegos para niños', 'Gimnasio', 'Lobby', 'Sala Bar', 'Sala de Niños', 'Sala de usos Múltiples', 'Terraza', 'Video vigilancia', 'Zona de Parrillas', 'Otros']",flat,203,Piso: 2,2,47.72 m2,"S/ 359,994"
2757,https://nexoinmobiliario.pe/proyecto/venta-de-departamento-2984-cinnco-mambo-etapa-i-comas-lima-lima-lider,CINNCO MAMBO ETAPA I,-11.935316324729031,-77.06398050313845,Calle 18 S/N,Comas,En construcción,"01 de Agosto, 2025",BBVA,"['Área de juegos para niños', 'Areas verdes', 'Lobby', 'Sala de usos Múltiples', 'Zona de Parrillas', 'Otros']",flat,4,Pisos: Entre 5 al 13,3,73.67 m2,"S/ 332,800"
2189,https://nexoinmobiliario.pe/proyecto/venta-de-departamento-3325-edificio-sialia-jesus-maria-lima-lima-grupo-cygnus,Edificio Sialia,-12.0736972,-77.0466613,"Av. 6 de Agosto 1184, Jesús María",Jesus Maria,En planos,"31 de Mayo, 2027",Banco BCP,"['Jardin interior', 'Lobby', 'Sala de Internet', 'Sala de usos Múltiples', 'Terraza', 'Zona de Parrillas', 'Otros']",flat,Tipo 102,Piso: 1,2,82.42 m2,"S/ 602,631"
3877,https://nexoinmobiliario.pe/proyecto/venta-de-departamento-2509-centrik-miraflores-lima-lima-inmobiliaria-ares,CENTRIK,-12.1075448,-77.0293153,"Scipion Llona 250, Miraflores",Miraflores,En construcción,"31 de Agosto, 2025",BBVA,"['Areas verdes', 'Gimnasio', 'Jardin interior', 'Lobby', 'Sala de usos Múltiples', 'Terraza', 'Zona de Parrillas', 'Otros']",flat,Tipo 7,Pisos: Entre 2 al 8,3,83.13 m2,"S/ 731,400"
1939,https://nexoinmobiliario.pe/proyecto/venta-de-departamento-2332-filin-santiago-de-surco-lima-lima-danfra-inmobiliaria,FILIN,-12.138501617678145,-76.97901238161214,Jirón Cerro Negro 299-209,Santiago De Surco,En construcción,"30 de Septiembre, 2024",BBVA,"['Jardin interior', 'Lobby', 'Zona de Parrillas', 'Otros']",flat,701,Piso: 7,3,177.05 m2,"S/ 874,570"
1137,https://nexoinmobiliario.pe/proyecto/venta-de-departamento-2487-libertad-san-miguel-lima-lima-capac-asociados,Libertad,-12.0793846,-77.1040247,Av Libertad 2401,San Miguel,En planos,"30 de Noviembre, 2025",Banco Pichincha,"['Gimnasio', 'Lobby', 'Sala de Niños', 'Sala de usos Múltiples', 'Techo Panorámico', 'Terraza', 'Zona de Parrillas', 'Otros']",flat,AX06,Pisos: Entre 2 al 9,2,51.00 m2,"S/ 260,000"
1477,https://nexoinmobiliario.pe/proyecto/venta-de-departamento-2436-ativa-santiago-de-surco-lima-lima-cosapi,ATIVA,-12.09812654523626,-76.97171687190692,"El Derby 160, Surco",Santiago De Surco,En planos,"18 de Julio, 2024",Banco BCP,"['Área de juegos para niños', 'Gimnasio', 'Lobby', 'Sala de Niños', 'Terraza', 'Zona de Lavandería', 'Zona de Parrillas', 'Otros']",flat,Departamento tipo X09,"Pisos: 3, 4, 5",1,41.27 m2,"S/ 389,967"
5529,https://nexoinmobiliario.pe/proyecto/venta-de-departamento-2722-mariscal-castilla-santiago-de-surco-lima-lima-tale-inmobiliaria,MARISCAL CASTILLA,-12.1339205,-77.0149429,"Av. Mariscal Castilla 334 – 338, Surco",Santiago De Surco,En construcción,"31 de Diciembre, 2025",Otros,"['Área de juegos para niños', 'Gimnasio', 'Lobby', 'Piscina', 'Sala Bar', 'Sala de Niños', 'Salon Gourmet', 'Techo Panorámico', 'Terraza', 'Zona de Parrillas']",flat,X01-A,Pisos: Entre 4 al 18,2,55.00 m2,"S/ 433,000"
5618,https://nexoinmobiliario.pe/proyecto/venta-de-departamento-3334-residencial-green-life-chorrillos-lima-lima-verones-grupo-inmobiliario,Residencial Green Life,-12.176865728505682,-77.0041376935666,Los Gorriones 490,Chorrillos,En planos,"09 de Abril, 2026",Financiamiento Propio,"['Área de juegos para niños', 'Areas verdes', 'Ascensor directo', 'Gimnasio', 'Jardin de niños', 'Jardin interior', 'Lobby', 'Sala de usos Múltiples', 'Terraza', 'Zona de Parrillas', 'Otros']",flat,709,Piso: 7,1,39.75 m2,"S/ 233,730"
6039,https://nexoinmobiliario.pe/proyecto/venta-de-departamento-3051-upper-28-miraflores-lima-lima-edifica,Upper 28,-12.1270154,-77.02883159999999,Av. 28 de julio 551,Miraflores,En construcción,"31 de Diciembre, 2025",Financiamiento Propio,"['Jardin interior', 'Lobby', 'Piscina', 'Sala Bar', 'Terraza', 'Zona de Parrillas', 'Otros']",duplex,15,Piso: 18,3,131.21 m2,"S/ 1,118,245"
4685,https://nexoinmobiliario.pe/proyecto/venta-de-departamento-2361-paseo-de-la-arboleda-4-santiago-de-surco-lima-lima-v&v-grupo-inmobiliario,PASEO DE LA ARBOLEDA 4,-12.14157370047621,-77.01076472165404,jr combate de angamos 542,Santiago De Surco,En construcción,"31 de Diciembre, 2024",Financiamiento Propio,"['Área de juegos para niños', 'Areas verdes', 'Lobby', 'Parque privado', 'Sala Bar', 'Sala de cine', 'Sala de Niños', 'Sala de usos Múltiples', 'Terraza', 'Zona de Parrillas']",flat,M-SS01,Piso:,2,74.00 m2,"S/ 451,000"
4056,https://nexoinmobiliario.pe/proyecto/venta-de-departamento-2393-lombardia-lince-lima-lima-toratto-grupo-inmobiliario,LOMBARDIA,-12.0813968,-77.03940030000001,Jr. Manuel Gómez N° 390,Lince,En construcción,"31 de Diciembre, 2024",BBVA,"['Área de juegos para niños', 'Lobby', 'Otros']",flat,TIPO R,Piso: 2,2,63.07 m2,"S/ 459,879"
4445,https://nexoinmobiliario.pe/proyecto/venta-de-departamento-3024-castellana-173-santiago-de-surco-lima-lima-ee-inmobiliaria,Castellana 173,-12.1304268,-77.0014315,Av. La Castellana 173,Santiago De Surco,En construcción,"30 de Abril, 2025",Banco BANBIF,"['Lobby', 'Terraza', 'Zona de Parrillas']",flat,Tipo 5,"Pisos: 2, 3, 4, 5, 6",2,59.64 m2,"$ 118,000"
6177,https://nexoinmobiliario.pe/proyecto/venta-de-departamento-2756-benavides-30-miraflores-lima-lima-citia,BENAVIDES 30,-12.1290823,-77.0021289,Av. Benavides 3066,Miraflores,En planos,"15 de Septiembre, 2025",BBVA,"['Lobby', 'Sala de usos Múltiples', 'Terraza', 'Zona de Parrillas']",flat,3A + T,Piso: 15,2,81.51 m2,"S/ 557,750"
1134,https://nexoinmobiliario.pe/proyecto/venta-de-departamento-2487-libertad-san-miguel-lima-lima-capac-asociados,Libertad,-12.0793846,-77.1040247,Av Libertad 2401,San Miguel,En planos,"30 de Noviembre, 2025",Banco Pichincha,"['Gimnasio', 'Lobby', 'Sala de Niños', 'Sala de usos Múltiples', 'Techo Panorámico', 'Terraza', 'Zona de Parrillas', 'Otros']",flat,AX03,Pisos: Entre 2 al 13,2,54.25 m2,"S/ 271,000"
6270,https://nexoinmobiliario.pe/proyecto/venta-de-departamento-2430-patria-barranco-lima-lima-invent,PATRIA,-12.1371605,-77.0198954,CARLOS ARRIETA 380,Barranco,En construcción,"31 de Diciembre, 2024",Banco Scotiabank,"['Gimnasio', 'Lobby', 'Piscina', 'Sala Bar', 'Zona de Lavandería', 'Zona de Parrillas', 'Otros']",flat,TIPO 9,Piso: 1,1,60.61 m2,"S/ 669,929"
784,https://nexoinmobiliario.pe/proyecto/venta-de-departamento-2652-larco-791-miraflores-lima-lima-v&v-grupo-inmobiliario,LARCO 791,-12.1258119,-77.0293327,Av. Larco 791 - Miraflores,Miraflores,En construcción,"31 de Diciembre, 2025","Banco BCP, Otros","['Gimnasio', 'Lobby', 'Piscina', 'Sala Bar', 'Salon Gourmet', 'Terraza', 'Zona de Parrillas', 'Otros']",flat,Tipo T1-X09,Piso: 13,3,89.55 m2,"S/ 819,000"
2160,https://nexoinmobiliario.pe/proyecto/venta-de-departamento-3242-new-one-jesus-maria-lima-lima-granadero-inmobiliaria,New One,-12.07389332682638,-77.03978922458735,"Av 6 de agosto 409, Jesús María",Jesus Maria,En construcción,"31 de Mayo, 2025",Banco Interbank,"['Gimnasio', 'Jardin interior', 'Lobby', 'Sala de Internet', 'Sala de usos Múltiples', 'Terraza', 'Video vigilancia', 'Zona de Parrillas', 'Otros']",duplex,1105,Piso: 11,3,118.35 m2,"S/ 894,200"
2968,https://nexoinmobiliario.pe/proyecto/venta-de-departamento-2953-elysee-pueblo-libre-lima-lima-arteco,Elysée,-12.07995105043442,-77.05823040125965,Av. Brasil 2260,Pueblo Libre,En planos,"25 de Noviembre, 2025",BBVA,"['Área de juegos para niños', 'Areas verdes', 'Gimnasio', 'Jardin de niños', 'Jardin interior', 'Lobby', 'Sala Bar', 'Sala de cine', 'Sala de Internet', 'Sala de Niños', 'Sala de usos Múltiples', 'Salon Gourmet', 'Terraza', 'Zona de Parrillas', 'Otros']",flat,1,Pisos: Entre 5 al 22,3,71.51 m2,"S/ 460,000"
1843,https://nexoinmobiliario.pe/proyecto/venta-de-departamento-2596-legado-jesus-maria-lima-lima-invent,LEGADO,-12.0820984,-77.0499681,"Jesús María, Av San Felipe 785 -787",Jesus Maria,En planos,"31 de Diciembre, 2025",BBVA,"['Área de juegos para niños', 'Gimnasio', 'Karaoke', 'Piscina', 'Sala de Niños', 'Terraza', 'Zona de Lavandería', 'Otros']",flat,1 - I,Piso: 1,2,84.79 m2,"S/ 578,908"
3672,https://nexoinmobiliario.pe/proyecto/venta-de-departamento-3237-valle-grande-4-carabayllo-lima-lima-enacorp,VALLE GRANDE 4,-11.862355623377484,-77.05571705709315,Av. San Juan de Dios s/n Paradero Haras - Carabayllo,Carabayllo,En construcción,"01 de Noviembre, 2024",BBVA,"['Área de juegos para niños', 'Areas verdes', 'Parque privado', 'Sala de Niños', 'Sala de usos Múltiples', 'Otros']",flat,TIPO 144,Piso: 1,3,54.87 m2,"S/ 150,000"
4260,https://nexoinmobiliario.pe/proyecto/venta-de-departamento-3025-centrix-28-miraflores-lima-lima-ee-inmobiliaria,Centrix 28,-12.12972221149553,-77.0214986734462,AV. 28 de Julio 1109 con Cl. Francisco del Castillo N° 359 - 365,Miraflores,En planos,"31 de Julio, 2026",Banco BCP,"['Gimnasio', 'Lobby', 'Terraza', 'Zona de Parrillas']",flat,Tipo 07,Pisos: Entre 2 al 11,1,40.80 m2,"S/ 350,000"
2087,https://nexoinmobiliario.pe/proyecto/venta-de-departamento-2047-roosevelt-6000-departamentos-miraflores-lima-lima-marcan,Roosevelt 6000 - Departamentos,-12.1233719092039,-77.01793227785672,Av. Roosevelt 6000,Miraflores,Entrega inmediata,"30 de Noviembre, 2023",Banco BCP,"['Gimnasio', 'Lobby', 'Piscina', 'Sala de usos Múltiples', 'Terraza', 'Video vigilancia', 'Zona de Parrillas', 'Otros']",duplex,DUPLEX-X03,Piso: 16,3,195.03 m2,"S/ 1,287,000"
4820,https://nexoinmobiliario.pe/proyecto/venta-de-departamento-1776-novara-miraflores-lima-lima-valico,Novara,-12.122544661911917,-77.0244692526943,Paseo de la Republica 5745,Miraflores,Entrega inmediata,"30 de Junio, 2022",BBVA,"['Área de juegos para niños', 'Gimnasio', 'Lobby', 'Sala de usos Múltiples', 'Terraza', 'Video vigilancia']",flat,X01,"Pisos: 9, 14, 15, 17",3,122.06 m2,"$ 200,000"
5551,https://nexoinmobiliario.pe/proyecto/venta-de-departamento-2722-mariscal-castilla-santiago-de-surco-lima-lima-tale-inmobiliaria,MARISCAL CASTILLA,-12.1339205,-77.0149429,"Av. Mariscal Castilla 334 – 338, Surco",Santiago De Surco,En construcción,"31 de Diciembre, 2025",Otros,"['Área de juegos para niños', 'Gimnasio', 'Lobby', 'Piscina', 'Sala Bar', 'Sala de Niños', 'Salon Gourmet', 'Techo Panorámico', 'Terraza', 'Zona de Parrillas']",flat,X10-A,Pisos: 4 y 6,3,73.00 m2,"S/ 555,000"
5600,https://nexoinmobiliario.pe/proyecto/venta-de-departamento-3334-residencial-green-life-chorrillos-lima-lima-verones-grupo-inmobiliario,Residencial Green Life,-12.176865728505682,-77.0041376935666,Los Gorriones 490,Chorrillos,En planos,"09 de Abril, 2026",Financiamiento Propio,"['Área de juegos para niños', 'Areas verdes', 'Ascensor directo', 'Gimnasio', 'Jardin de niños', 'Jardin interior', 'Lobby', 'Sala de usos Múltiples', 'Terraza', 'Zona de Parrillas', 'Otros']",flat,706,Piso: 7,2,46.49 m2,"S/ 258,717"
5730,https://nexoinmobiliario.pe/proyecto/venta-de-departamento-2877-torre-tale-primavera-etapa-i-san-borja-lima-lima-tale-inmobiliaria,TORRE TALE PRIMAVERA - ETAPA I,-12.110887994060198,-76.99418302794139,"Av. San Luis esquina Av. Angamos Este, esquina Av. Géminis, esquina Jr. Pablo Usandizaga",San Borja,En planos,"31 de Marzo, 2027",Otros,"['Gimnasio', 'Lobby', 'Piscina', 'Sala Bar', 'Sala de Niños', 'Terraza', 'Zona de Parrillas']",flat,T1-X01,Pisos: Entre 2 al 22,3,76.00 m2,"S/ 545,000"
4126,https://nexoinmobiliario.pe/proyecto/venta-de-departamento-3029-midgo-lince-lima-lima-cosapi,MIDGO,-12.083336182425771,-77.03480061358519,av arequipa 1890,Lince,En planos,"31 de Diciembre, 2026",Banco BCP,"['Área de juegos para niños', 'Gimnasio', 'Lobby', 'Sala Bar', 'Sala de Niños', 'Salon Gourmet', 'Terraza', 'Zona de Parrillas', 'Otros']",flat,Departamento tipo x02,Pisos: Entre 3 al 22,2,58.55 m2,"S/ 505,451"
5525,https://nexoinmobiliario.pe/proyecto/venta-de-departamento-2199-livorno-lince-lima-lima-toratto-grupo-inmobiliario,LIVORNO,-12.089360918332403,-77.03618155238584,Av. Trinidad Moran 331,Lince,Entrega inmediata,"24 de Junio, 2023","BBVA, Otros","['Areas verdes', 'Lobby']",flat,TIPO L,Piso: 8,3,147.16 m2,"S/ 1,043,926"
375,https://nexoinmobiliario.pe/proyecto/venta-de-departamento-2688-gracia-miraflores-lima-lima-urbana-per%C3%BA,Gracia,-12.1277055,-77.0075267,Av. Aflredo Benavides 2543,Miraflores,En planos,"30 de Diciembre, 2025",Banco Scotiabank,"['Lobby', 'Sala de Niños', 'Sala de usos Múltiples', 'Zona de Parrillas', 'Otros']",flat,Tipo X04,Pisos: Entre 3 al 16,1,75.76 m2,"S/ 530,399"
4051,https://nexoinmobiliario.pe/proyecto/venta-de-departamento-2393-lombardia-lince-lima-lima-toratto-grupo-inmobiliario,LOMBARDIA,-12.0813968,-77.03940030000001,Jr. Manuel Gómez N° 390,Lince,En construcción,"31 de Diciembre, 2024",BBVA,"['Área de juegos para niños', 'Lobby', 'Otros']",flat,TIPO J,Piso: 1,2,92.75 m2,"S/ 545,248"
3223,https://nexoinmobiliario.pe/proyecto/venta-de-departamento-1914-nius-magdalena-del-mar-lima-lima-grupo-t&c,NIUS,-12.0903598,-77.0657035,"Av. Javier Prado Oeste 140, Magdalena del Mar, Lima, Perú.",Magdalena Del Mar,En construcción,"30 de Septiembre, 2024",Financiamiento Propio,"['Gimnasio', 'Lobby', 'Sala de Niños', 'Sala de usos Múltiples', 'Salon Gourmet', 'Terraza', 'Zona de Parrillas']",flat,TIPO 7,Piso: 16,2,52.79 m2,"S/ 445,081"
1388,https://nexoinmobiliario.pe/proyecto/venta-de-departamento-2226-schell-miraflores-lima-lima-volterra,Schell,-12.123481843333906,-77.02599383268344,calle Schell 605,Miraflores,En construcción,"30 de Junio, 2025",Banco BCP,"['Areas verdes', 'Gimnasio', 'Lobby', 'Sala Bar', 'Sala de usos Múltiples', 'Salon Gourmet', 'Terraza', 'Video vigilancia', 'Zona de Lavandería', 'Zona de Parrillas', 'Otros']",duplex,Tipo 5,Piso: 11,3,131.57 m2,"S/ 1,171,634"
6442,https://nexoinmobiliario.pe/proyecto/venta-de-departamento-2573-malecon-acacias-miraflores-lima-lima-aurora-grupo-inmobiliario,Malecón Acacias,-12.1352462,-77.0266118,Calle Las Acacias N° 230,Miraflores,En construcción,"31 de Enero, 2025",BBVA,[],flat,SS02,Piso:,2,107.00 m2,"$ 338,200"
1399,https://nexoinmobiliario.pe/proyecto/venta-de-departamento-2654-albamar-parque-habich-jesus-maria-lima-lima-albamar-grupo-inmobiliario,Albamar | Parque Habich,-12.07210452019679,-77.03913694737307,JR.PABLO BERMUDEZ N N°316 - JESÚS MARÍA,Jesus Maria,En construcción,"30 de Septiembre, 2024",Otros,"['Areas verdes', 'Gimnasio', 'Lobby', 'Sala Bar', 'Sala de Niños', 'Terraza', 'Video vigilancia', 'Zona de Parrillas', 'Otros']",flat,TIPO 3,Piso: 12,3,71.67 m2,"S/ 611,800"
5925,https://nexoinmobiliario.pe/proyecto/venta-de-departamento-2475-casaparq-monterrico-ii-santiago-de-surco-lima-lima-cissac,CasaParq Monterrico II,-12.105931400152418,-76.97829363729716,Cruce de Cristobal de Peralta norte esquina con Jerónimo de Aliaga norte Chacarilla,Santiago De Surco,En construcción,"31 de Marzo, 2025",Banco BANBIF,"['Área de juegos para niños', 'Areas verdes', 'Gimnasio', 'Jardin de niños', 'Jardin interior', 'Lobby', 'Parque privado', 'Piscina', 'Pista para trotarcorrer', 'Sala de cine', 'Sala de Internet', 'Sala de Niños', 'Sala de usos Múltiples', 'Salon Gourmet', 'Techo Panorámico', 'Terraza', 'Video vigilancia', 'Zona de Lavandería', 'Zona de Parrillas']",flat,2,Pisos: 11 y 14,2,64.33 m2,"S/ 474,000"
5934,https://nexoinmobiliario.pe/proyecto/venta-de-departamento-2256-edificio-portofino-miraflores-lima-lima-c-&-v-grupo-inmobiliario,Edificio Portofino,-12.1181942,-77.0425557,"Av. Santa Cruz 1550, Miraflores",Miraflores,Entrega inmediata,"30 de Agosto, 2024",BBVA,"['Areas verdes', 'Boulevard peatonal', 'Cuarto servicio', 'Gimnasio', 'Jardin interior', 'Lobby', 'Piscina', 'Sala Bar', 'Sala de Internet', 'Sala de usos Múltiples', 'Techos Ecológicos', 'Terraza', 'Video vigilancia', 'Zona de Lavandería', 'Zona de Parrillas', 'Otros']",flat,5,Pisos: Entre 2 al 8,3,82.56 m2,"$ 218,375"
3081,https://nexoinmobiliario.pe/proyecto/venta-de-departamento-2133-los-robles-del-chipe-piura-piura-piura-edifica,Los Robles del Chipe,-5.1678671,-80.62803339999999,"Av. Los Tallanes S/N, Piura",Piura,En construcción,"01 de Agosto, 2024",Banco BCP,"['Lobby', 'Parque privado', 'Terraza']",flat,Tipo 3 - 1er piso,Piso: 1,2,76.47 m2,"$ 330,000"
2533,https://nexoinmobiliario.pe/proyecto/venta-de-departamento-2506-ocean-avenue-pueblo-libre-lima-lima-servipro,OCEAN AVENUE,-12.0749761,-77.0631473,Av. Sucre 425-437,Pueblo Libre,En construcción,"15 de Diciembre, 2024",BBVA,"['Área de juegos para niños', 'Jardin de niños', 'Lobby', 'Sala Bar', 'Sala de usos Múltiples', 'Terraza', 'Zona de Parrillas', 'Otros']",flat,X04,Pisos: Entre 4 al 18,2,56.85 m2,"S/ 373,000"
4526,https://nexoinmobiliario.pe/proyecto/venta-de-departamento-3298-cool-living-cercado-de-lima-lima-lima-promsal,Cool Living,-12.0784217,-77.0346433,Manuel del pino 265,Cercado de lima,En planos,"30 de Julio, 2027",Banco BCP,"['Área de juegos para niños', 'Areas verdes', 'Boulevard peatonal', 'Club House', 'Gimnasio', 'Jardin de niños', 'Jardin interior', 'Lobby', 'Sala Bar', 'Sala de usos Múltiples', 'Terraza', 'Video vigilancia', 'Zona de Parrillas']",flat,9,"Pisos: 21, 22, 23",2,59.86 m2,"S/ 389,808"
5727,https://nexoinmobiliario.pe/proyecto/venta-de-departamento-2396-malaga-101-santiago-de-surco-lima-lima-fcm-construcciones,Malaga 101,-12.1203087,-76.9896993,Jirón Málaga 101,Santiago De Surco,Entrega inmediata,"31 de Diciembre, 2023",BBVA,"['Lobby', 'Sala de usos Múltiples']",flat,2D-2B (TIPO 1),Piso: 1,2,69.46 m2,"$ 180,000"
201,https://nexoinmobiliario.pe/proyecto/venta-de-departamento-2627-la-foret-san-felipe-jesus-maria-lima-lima-abril-grupo-inmobiliario,La Foret - San Felipe,-12.082678,-77.0500825,Av. San Felipe 758,Jesus Maria,En construcción,"31 de Julio, 2025",Banco BCP,"['Gimnasio', 'Karaoke', 'Lobby', 'Piscina', 'Sala de cine', 'Sala de Niños', 'Terraza', 'Otros']",flat,LF-2-X10A,Piso: 9,2,58.86 m2,"S/ 418,509"
5207,https://nexoinmobiliario.pe/proyecto/venta-de-departamento-3211-las-praderas-chorrillos-lima-lima-tale-inmobiliaria,Las Praderas,-12.1768317,-76.99919310000001,"Av. Los Faisanes 485, Chorrillos 15054",Chorrillos,En planos,"31 de Diciembre, 2026",Otros,"['Gimnasio', 'Jardin de niños', 'Lobby', 'Sala Bar', 'Sala de Niños', 'Sala de usos Múltiples', 'Terraza', 'Zona de Parrillas']",flat,X307,Piso: 3,2,51.91 m2,"S/ 262,000"
4764,https://nexoinmobiliario.pe/proyecto/venta-de-departamento-3239-sky-park-san-borja-lima-lima-inhouse,SKY PARK,-12.0956057,-76.9882326,Jirón Paseo del Bosque 832,San Borja,En planos,"31 de Marzo, 2026",BBVA,"['Areas verdes', 'Lobby', 'Sala Bar', 'Sala de usos Múltiples', 'Terraza', 'Zona de Parrillas', 'Otros']",flat,802,Piso: 8,3,71.58 m2,"S/ 724,000"
3216,https://nexoinmobiliario.pe/proyecto/venta-de-departamento-2999-lilas-lince-lima-lima-abril-grupo-inmobiliario,Lilas,-12.0910776,-77.0416679,Jiron Pezet y Monel 2728,Lince,En construcción,"30 de Marzo, 2025",Banco Scotiabank,['Lobby'],duplex,LIL-801,Piso: 8,3,118.65 m2,"S/ 869,092"
5305,https://nexoinmobiliario.pe/proyecto/venta-de-departamento-3215-urban-heights-miraflores-lima-lima-edifica,Urban Heights,-12.1289342,-77.0225608,Avenida Paseo De La Republica 6143,Miraflores,En planos,"01 de Junio, 2026",Financiamiento Propio,"['Gimnasio', 'Jardin interior', 'Lobby', 'Piscina', 'Sala Bar', 'Zona de Lavandería', 'Otros']",flat,B5,Pisos: Entre 2 al 20,1,41.18 m2,"S/ 417,461"
2629,https://nexoinmobiliario.pe/proyecto/venta-de-departamento-2911-residencial-real-etapa-2-la-victoria-lima-lima-paz,Residencial Real Etapa 2,-12.0726186,-77.0300678,"Jr. Francia N° 130, La Victoria",La Victoria,En construcción,"31 de Octubre, 2024",Banco Interbank,"['Área de juegos para niños', 'Gimnasio', 'Jardin interior', 'Lobby', 'Piscina', 'Sala Bar', 'Sala de Internet', 'Sala de Niños', 'Sala de usos Múltiples', 'Techo Panorámico', 'Terraza', 'Zona de Lavandería', 'Zona de Parrillas', 'Otros']",flat,15,Pisos: Entre 3 al 18,2,52.74 m2,"S/ 291,785"
5199,https://nexoinmobiliario.pe/proyecto/venta-de-departamento-3211-las-praderas-chorrillos-lima-lima-tale-inmobiliaria,Las Praderas,-12.1768317,-76.99919310000001,"Av. Los Faisanes 485, Chorrillos 15054",Chorrillos,En planos,"31 de Diciembre, 2026",Otros,"['Gimnasio', 'Jardin de niños', 'Lobby', 'Sala Bar', 'Sala de Niños', 'Sala de usos Múltiples', 'Terraza', 'Zona de Parrillas']",flat,X208,Piso: 2,2,72.54 m2,"S/ 401,000"
6233,https://nexoinmobiliario.pe/proyecto/venta-de-departamento-1904-casaparq-cerro-colorado-ii-cerro-colorado-arequipa-arequipa-cissac,CasaParq - Cerro Colorado II,-16.3734647,-71.5542996,Calle A 1 Urb.El Rosario II Condominio Casaparq,Cerro Colorado,En construcción,"30 de Noviembre, 2024","Banco BANBIF, Otros","['Área de juegos para niños', 'Areas verdes', 'Gimnasio', 'Jardin de niños', 'Jardin interior', 'Lobby', 'Sala de cine', 'Sala de Internet', 'Sala de Niños', 'Sala de usos Múltiples', 'Video vigilancia', 'Zona de Parrillas', 'Otros']",flat,MODELO 01,Piso: 1,3,64.70 m2,"S/ 356,277"
5280,https://nexoinmobiliario.pe/proyecto/venta-de-departamento-3258-albamar-oasis-surquillo-lima-lima-albamar-grupo-inmobiliario,Albamar | Oasis,-12.1025042,-77.0217445,"Av. Andres Aramburú 866, Surquillo",Surquillo,En planos,"31 de Agosto, 2026",Banco BCP,"['Área de juegos para niños', 'Areas verdes', 'Gimnasio', 'Jardin de niños', 'Jardin interior', 'Lobby', 'Parque privado', 'Sala Bar', 'Sala de cine', 'Sala de Niños', 'Sala de usos Múltiples', 'Terraza', 'Video vigilancia', 'Zona de Lavandería', 'Zona de Parrillas', 'Otros']",flat,Tipo 1,Pisos: Entre 7 al 22,2,57.24 m2,"S/ 426,700"
5510,https://nexoinmobiliario.pe/proyecto/venta-de-departamento-2316-inizzio-santiago-de-surco-lima-lima-sembra-inmobiliaria,INIZZIO,-12.1137096,-76.99237699999999,Caminos del Inca 236,Santiago De Surco,En construcción,"30 de Septiembre, 2024",Banco Scotiabank,"['Gimnasio', 'Lobby', 'Piscina', 'Sala de Niños', 'Terraza', 'Video vigilancia', 'Zona de Parrillas']",flat,1703,Piso: 17,3,76.58 m2,"S/ 686,600"
74,https://nexoinmobiliario.pe/proyecto/venta-de-departamento-3368-residencial-trazo-santiago-de-surco-lima-lima-grupo-dicon,RESIDENCIAL TRAZO,-12.1293067,-76.9856602,JR BATALLÓN CALLAO SUR 502,Santiago De Surco,En construcción,"30 de Junio, 2025",Banco Scotiabank,['Lobby'],flat,TIPO 4,Piso: 4,3,107.42 m2,"$ 228,507"
5627,https://nexoinmobiliario.pe/proyecto/venta-de-departamento-3334-residencial-green-life-chorrillos-lima-lima-verones-grupo-inmobiliario,Residencial Green Life,-12.176865728505682,-77.0041376935666,Los Gorriones 490,Chorrillos,En planos,"09 de Abril, 2026",Financiamiento Propio,"['Área de juegos para niños', 'Areas verdes', 'Ascensor directo', 'Gimnasio', 'Jardin de niños', 'Jardin interior', 'Lobby', 'Sala de usos Múltiples', 'Terraza', 'Zona de Parrillas', 'Otros']",duplex,810,Piso: 8,2,65.30 m2,"S/ 364,550"
0,https://nexoinmobiliario.pe/proyecto/venta-de-departamento-2706-high-line-santiago-de-surco-lima-lima-tribeca-inmobiliaria,HIGH LINE,-12.1159754,-76.9909747,Av. Caminos del Inca 508 esquina con Jr. Cañón del Pato,Santiago De Surco,En construcción,"31 de Diciembre, 2025",BBVA,"['Área de juegos para niños', 'Areas verdes', 'Ascensor directo', 'Gimnasio', 'Jardin de niños', 'Lobby', 'Piscina', 'Sala Bar', 'Salon Gourmet', 'Techos Ecológicos', 'Terraza', 'Zona de Parrillas']",flat,TIPO 1,Pisos: Entre 3 al 16,2,60.23 m2,"S/ 501,916"
4180,https://nexoinmobiliario.pe/proyecto/venta-de-departamento-2306-villa-convivium-2-magdalena-del-mar-lima-lima-grupo-caral,Villa Convivium 2,-12.0952671,-77.0723793,Jirón Salaverry 245 cruce con jirón Tacna,Magdalena Del Mar,En construcción,"30 de Abril, 2025",Banco BCP,"['Área de juegos para niños', 'Areas verdes', 'Gimnasio', 'Jardin interior', 'Lobby', 'Sala de Niños', 'Sala de usos Múltiples', 'Terraza', 'Zona de Parrillas', 'Otros']",flat,3D - 12,"Pisos: 2, 4, 8, 10",3,71.33 m2,"S/ 486,815"
1647,https://nexoinmobiliario.pe/proyecto/venta-de-departamento-3336-prada-jesus-maria-lima-lima-maxx-grupo-inmobiliario,PRADA,-12.0795016,-77.0499914,AV TIZON Y BUENO 639,Jesus Maria,En planos,"21 de Diciembre, 2025",Banco Scotiabank,"['Jardin interior', 'Lobby', 'Sala de usos Múltiples', 'Terraza', 'Video vigilancia', 'Zona de Parrillas']",flat,PISO 1 103,Piso: 1,2,92.00 m2,"S/ 550,400"
625,https://nexoinmobiliario.pe/proyecto/venta-de-departamento-3011-torre-castelo-cercado-de-lima-lima-lima-capac-asociados,TORRE CASTELO,-12.07758526037867,-77.03489898523888,"Teodoro Cardenas 244, Santa Beatriz",Cercado de lima,En planos,"31 de Octubre, 2026",Banco Scotiabank,"['Gimnasio', 'Jardin interior', 'Lobby', 'Sala de usos Múltiples', 'Zona de Lavandería']",flat,Tipo 104,Piso: 1,2,67.25 m2,"S/ 442,105"
1625,https://nexoinmobiliario.pe/proyecto/venta-de-departamento-2116-salaverry-571-jesus-maria-lima-lima-desarrolladora,SALAVERRY 571,-12.069891410600832,-77.04006831333737,"Av. General Salaverry 571, Jesús María",Jesus Maria,En construcción,"30 de Abril, 2025",BBVA,"['Área de juegos para niños', 'Gimnasio', 'Jardin de niños', 'Jardin interior', 'Lobby', 'Sala de Niños', 'Sala de usos Múltiples', 'Terraza', 'Video vigilancia', 'Zona de Parrillas', 'Otros']",flat,2,Pisos: Entre 5 al 22,3,75.21 m2,"S/ 633,000"
3173,https://nexoinmobiliario.pe/proyecto/venta-de-departamento-2438-inspiria-san-miguel-lima-lima-urbalima,INSPIRIA,-12.0782561,-77.1012282,Av. Razuri 243 - 247,San Miguel,En planos,"31 de Diciembre, 2025","Banco BANBIF, Banco Scotiabank","['Lobby', 'Video vigilancia', 'Zona de Parrillas']",flat,TIPO 6 C,Piso: 17,3,59.60 m2,"S/ 401,621"
2768,https://nexoinmobiliario.pe/proyecto/venta-de-departamento-2161-republica-de-chile-jesus-maria-lima-lima-v&v-grupo-inmobiliario,REPUBLICA DE CHILE,-12.0696597,-77.03868059999999,Av. República de Chile 498 – Jesús María,Jesus Maria,Entrega inmediata,"31 de Marzo, 2024",Banco Scotiabank,"['Área de juegos para niños', 'Areas verdes', 'Gimnasio', 'Lobby', 'Parque privado', 'Piscina', 'Sala Bar', 'Sala de Niños', 'Techo Panorámico', 'Terraza', 'Zona de Parrillas']",flat,Tipo 16-A,Pisos: 4 y 9,2,61.95 m2,"S/ 458,000"
4520,https://nexoinmobiliario.pe/proyecto/venta-de-departamento-3167-hometown-condominio-san-borja-lima-lima-esparq-inversiones,Hometown Condominio,-12.0940626,-76.9894345,Durero 490 san borja,San Borja,En construcción,"30 de Mayo, 2025",BBVA,"['Área de juegos para niños', 'Areas verdes', 'Gimnasio', 'Jardin de niños', 'Jardin interior', 'Lobby', 'Piscina', 'Sala de Internet', 'Sala de Niños', 'Sala de usos Múltiples', 'Salon Gourmet']",duplex,TIPO 18I,Piso: 4,4,250.98 m2,"$ 443,000"
4591,https://nexoinmobiliario.pe/proyecto/venta-de-departamento-3358-central-home-chacarilla-santiago-de-surco-lima-lima-ee-inmobiliaria,Central Home Chacarilla,-12.112760461149128,-76.99036037001652,Cl. Monterrey 319,Santiago De Surco,En planos,"31 de Octubre, 2025",Banco BCP,"['Gimnasio', 'Lobby', 'Terraza', 'Zona de Lavandería', 'Zona de Parrillas']",flat,Dpto. 1004,Piso: 10,2,78.36 m2,"$ 148,000"
1946,https://nexoinmobiliario.pe/proyecto/venta-de-departamento-3364-los-alamos-de-carmenca-san-miguel-lima-lima-inmobiliaria-josa,Los Alamos de Carmenca,-12.07380834592151,-77.0978454331716,Calle Carmenca 130,San Miguel,En construcción,"31 de Agosto, 2025",Banco BANBIF,"['Lobby', 'Sala de usos Múltiples', 'Zona de Parrillas']",flat,TIPO 8,"Pisos: 3, 5, 7, 9",3,66.00 m2,"S/ 388,740"
1361,https://nexoinmobiliario.pe/proyecto/venta-de-departamento-2990-friendz-2-chorrillos-lima-lima-hl-desarrollos-inmobiliarios,Friendz 2,-12.175152772790474,-77.00200867335236,Jr. Andromeda Mz J Lote 3,Chorrillos,En construcción,"31 de Mayo, 2025",Banco Pichincha,"['Área de juegos para niños', 'Areas verdes', 'Boulevard peatonal', 'Gimnasio', 'Jardin de niños', 'Lobby', 'Sala de usos Múltiples', 'Techos Ecológicos', 'Terraza', 'Video vigilancia', 'Zona de Lavandería', 'Zona de Parrillas']",flat,Tipo 4,"Pisos: 1, 2, 3, 4, 5",3,65.21 m2,"S/ 322,667"
4742,https://nexoinmobiliario.pe/proyecto/venta-de-departamento-3239-sky-park-san-borja-lima-lima-inhouse,SKY PARK,-12.0956057,-76.9882326,Jirón Paseo del Bosque 832,San Borja,En planos,"31 de Marzo, 2026",BBVA,"['Areas verdes', 'Lobby', 'Sala Bar', 'Sala de usos Múltiples', 'Terraza', 'Zona de Parrillas', 'Otros']",flat,206,Piso: 2,2,60.23 m2,"S/ 479,000"
6270,https://nexoinmobiliario.pe/proyecto/venta-de-departamento-2430-patria-barranco-lima-lima-invent,PATRIA,-12.1371605,-77.0198954,CARLOS ARRIETA 380,Barranco,En construcción,"31 de Diciembre, 2024",Banco Scotiabank,"['Gimnasio', 'Lobby', 'Piscina', 'Sala Bar', 'Zona de Lavandería', 'Zona de Parrillas', 'Otros']",flat,TIPO 9,Piso: 1,1,60.61 m2,"S/ 669,929"
4035,https://nexoinmobiliario.pe/proyecto/venta-de-departamento-2646-balance-santiago-de-surco-lima-lima-madrid-inmobiliaria,Balance,-12.1158043,-76.9940773,Jr. Fortaleza de Paramonga 160,Santiago De Surco,En construcción,"31 de Diciembre, 2024",Banco BCP,"['Área de juegos para niños', 'Areas verdes', 'Gimnasio', 'Lobby', 'Piscina', 'Techos Ecológicos', 'Terraza', 'Video vigilancia', 'Zona de Parrillas']",flat,Flat Típico 4,Piso: 7,3,133.75 m2,"S/ 1,091,000"
5511,https://nexoinmobiliario.pe/proyecto/venta-de-departamento-1988-arequipa-miraflores-lima-lima-actual,Arequipa,-12.1097102,-77.03034250000002,Av Arequipa 4405 miraflores,Miraflores,Entrega inmediata,"30 de Diciembre, 2023",BBVA,"['Lobby', 'Piscina', 'Sala de Niños', 'Sala de usos Múltiples', 'Techo Panorámico', 'Terraza', 'Zona de Parrillas']",flat,TIPO 1,Pisos: Entre 5 al 13,2,93.39 m2,"S/ 854,130"
4461,https://nexoinmobiliario.pe/proyecto/venta-de-departamento-2933-the-lead-san-isidro-lima-lima-edifica,The Lead,-12.093732,-77.0266056,"Av rivera navarrete 665, san isidro",San Isidro,En construcción,"31 de Diciembre, 2025",Banco Interbank,"['Gimnasio', 'Lobby', 'Piscina', 'Sala Bar', 'Terraza', 'Zona de Lavandería', 'Zona de Parrillas', 'Otros']",flat,Tipo 15,"Pisos: 20, 21, 22",2,90.14 m2,"S/ 1,012,941"
2867,https://nexoinmobiliario.pe/proyecto/venta-de-departamento-1995-condominio-felizia-chorrillos-lima-lima-la-venturosa,Condominio Felizia,-12.177773110918764,-76.9999210325216,Av. Los Faisanes 327,Chorrillos,Entrega inmediata,"31 de Diciembre, 2023",Banco BCP,"['Gimnasio', 'Lobby', 'Sala de Internet', 'Sala de usos Múltiples', 'Video vigilancia', 'Zona de Parrillas']",flat,TIPO TB-18,Piso: 12,1,53.05 m2,"S/ 254,177"
4313,https://nexoinmobiliario.pe/proyecto/venta-de-departamento-2624-villa-velarde-lince-lima-lima-grupo-caral,Villa Velarde,-12.0836031,-77.0421815,Jirón León Velarde 723,Lince,En construcción,"31 de Marzo, 2025",Banco Scotiabank,"['Gimnasio', 'Jardin interior', 'Lobby', 'Sala Bar', 'Sala de Niños', 'Sala de usos Múltiples', 'Zona de Parrillas', 'Otros']",flat,X-03,"Pisos: 2, 9, 10, 12, 13",3,71.18 m2,"S/ 477,822"
5242,https://nexoinmobiliario.pe/proyecto/venta-de-departamento-3010-lima-barranco-lima-lima-capac-asociados,LIMA,-12.1442897,-77.0231719,Av. San Martín 217,Barranco,En planos,"30 de Septiembre, 2025",Financiamiento Propio,"['Lobby', 'Otros']",flat,X102,Piso: 1,2,77.25 m2,"S/ 753,656"
862,https://nexoinmobiliario.pe/proyecto/venta-de-departamento-3318-gaviotas-176-chorrillos-lima-lima-v&v-grupo-inmobiliario,Gaviotas 176,-12.182188,-77.007618,"Av. Las Gaviotas 176, Chorrillos 15064",Chorrillos,En planos,"31 de Mayo, 2027",Otros,"['Área de juegos para niños', 'Areas verdes', 'Gimnasio', 'Jardin interior', 'Lobby', 'Parque privado', 'Sala de Niños', 'Zona de Lavandería', 'Zona de Parrillas', 'Otros']",flat,T1X203,Piso: 2,1,39.69 m2,"S/ 205,000"
6444,https://nexoinmobiliario.pe/proyecto/venta-de-departamento-2668-tradiciones-prime-miraflores-lima-lima-grupo-cygnus,Tradiciones Prime,-12.1202885,-77.02165880000001,Calle General vargas machuca 246,Miraflores,Entrega inmediata,"31 de Agosto, 2023",Banco BCP,[],flat,102,Piso: 1,3,130.37 m2,"S/ 1,164,407"
3664,https://nexoinmobiliario.pe/proyecto/venta-de-departamento-3237-valle-grande-4-carabayllo-lima-lima-enacorp,VALLE GRANDE 4,-11.862355623377484,-77.05571705709315,Av. San Juan de Dios s/n Paradero Haras - Carabayllo,Carabayllo,En construcción,"01 de Noviembre, 2024",BBVA,"['Área de juegos para niños', 'Areas verdes', 'Parque privado', 'Sala de Niños', 'Sala de usos Múltiples', 'Otros']",flat,TIPO 119,Piso: 5,3,54.74 m2,"S/ 85,695"
649,https://nexoinmobiliario.pe/proyecto/venta-de-departamento-2846-san-felipe-towers-jesus-maria-lima-lima-vive-plm,San Felipe Towers,-12.082636800186645,-77.05047192092127,Av. San Felipe 720 esquina Jr. Huascar,Jesus Maria,Entrega inmediata,"31 de Agosto, 2024",BBVA,"['Área de juegos para niños', 'Areas verdes', 'Lobby', 'Piscina', 'Sala Bar', 'Sala de Internet', 'Sala de Niños', 'Techo Panorámico', 'Techos Ecológicos', 'Terraza', 'Video vigilancia', 'Zona de Parrillas']",flat,Platinum T8,Pisos: Entre 12 al 22,1,50.10 m2,"S/ 417,100"
5430,https://nexoinmobiliario.pe/proyecto/venta-de-departamento-2716-libre-san-miguel-lima-lima-grupo-brocksa,Libre,-12.079435812411148,-77.10373403992337,Av. Libertad 2391,San Miguel,En construcción,"30 de Septiembre, 2024",BBVA,"['Área de juegos para niños', 'Lobby', 'Sala de usos Múltiples', 'Zona de Parrillas']",flat,TIPO B 2 DORMITORIOS,Pisos: 2 y 3,2,50.00 m2,"S/ 283,500"
4492,https://nexoinmobiliario.pe/proyecto/venta-de-departamento-3352-alameda-rio-grande-pueblo-libre-lima-lima-concreta-grupo-inmobiliario,Alameda Rio Grande,-12.0677347,-77.0571725,Rio Grande 321,Pueblo Libre,En planos,"29 de Noviembre, 2025",BBVA,['Lobby'],duplex,T8,Piso: 10,2,122.50 m2,"S/ 705,000"
573,https://nexoinmobiliario.pe/proyecto/venta-de-departamento-2451-seed-growing-home-santiago-de-surco-lima-lima-verdant-inmobiliaria,Seed Growing Home,-12.082956197507938,-76.97891973876098,Jr. República de Líbano 173,Santiago De Surco,En construcción,"31 de Agosto, 2024",Banco Interbank,"['Área de juegos para niños', 'Areas verdes', 'Ascensor directo', 'Boulevard peatonal', 'Gimnasio', 'Jardin de niños', 'Jardin interior', 'Lobby', 'Parque privado', 'Piscina', 'Sala Bar', 'Sala de Niños', 'Sala de usos Múltiples', 'Salon Gourmet', 'Techos Ecológicos', 'Terraza', 'Zona de Lavandería', 'Zona de Parrillas', 'Otros']",flat,X03,Piso: 5,2,77.40 m2,"S/ 721,000"
1290,https://nexoinmobiliario.pe/proyecto/venta-de-departamento-2893-campo-marte-jesus-maria-lima-lima-flat,CAMPO MARTE,-12.0665991,-77.0442315,Jr. Mogaburos 216 Esquina con Arnaldo Marquez,Jesus Maria,En planos,"30 de Noviembre, 2025",Banco Interbank,"['Gimnasio', 'Piscina', 'Terraza', 'Zona de Parrillas']",flat,TIPO 7,Pisos: Entre 3 al 17,1,40.40 m2,"S/ 292,000"
347,https://nexoinmobiliario.pe/proyecto/venta-de-departamento-1561-ambar-jesus-maria-lima-lima-marte,Ambar,-12.0813709,-77.0587166,Avenida Brasil 2363,Jesus Maria,En construcción,"30 de Junio, 2024",Banco BCP,"['Área de juegos para niños', 'Areas verdes', 'Club House', 'Gimnasio', 'Jardin de niños', 'Lobby', 'Piscina', 'Sala Bar', 'Sala de cine', 'Sala de Niños', 'Sala de usos Múltiples', 'Terraza', 'Video vigilancia', 'Zona de Lavandería', 'Zona de Parrillas', 'Otros']",flat,TIPO 7C,Pisos: 25 y 26,1,54.00 m2,"S/ 389,295"
575,https://nexoinmobiliario.pe/proyecto/venta-de-departamento-2451-seed-growing-home-santiago-de-surco-lima-lima-verdant-inmobiliaria,Seed Growing Home,-12.082956197507938,-76.97891973876098,Jr. República de Líbano 173,Santiago De Surco,En construcción,"31 de Agosto, 2024",Banco Interbank,"['Área de juegos para niños', 'Areas verdes', 'Ascensor directo', 'Boulevard peatonal', 'Gimnasio', 'Jardin de niños', 'Jardin interior', 'Lobby', 'Parque privado', 'Piscina', 'Sala Bar', 'Sala de Niños', 'Sala de usos Múltiples', 'Salon Gourmet', 'Techos Ecológicos', 'Terraza', 'Zona de Lavandería', 'Zona de Parrillas', 'Otros']",flat,X05,"Pisos: 7, 8, 9, 10",3,91.50 m2,"S/ 729,000"
2070,https://nexoinmobiliario.pe/proyecto/venta-de-departamento-2588-mandra-miraflores-lima-lima-grupo-tyc,MANDRA,-12.1110063,-77.0505041,Av. del Ejercito 1190,Miraflores,En construcción,"01 de Marzo, 2025",Financiamiento Propio,"['Areas verdes', 'Ascensor directo', 'Gimnasio', 'Lobby', 'Piscina', 'Sala de usos Múltiples', 'Salon Gourmet', 'Terraza', 'Zona de Parrillas']",flat,Tipo 14,"Pisos: 12, 13, 14, 15",1,48.89 m2,"S/ 420,172"
4659,https://nexoinmobiliario.pe/proyecto/venta-de-departamento-2015-ignacio-merino-621-miraflores-lima-lima-inversiones-palomar,IGNACIO MERINO 621,-12.112235961888032,-77.04500554213843,"Ignacio Merino 621, Miraflores",Miraflores,En planos,"12 de Agosto, 2025",Banco Interbank,"['Areas verdes', 'Ascensor directo', 'Boulevard peatonal', 'Cuarto servicio', 'Lobby', 'Techos Ecológicos', 'Video vigilancia', 'Otros']",flat,Tipo 2,Pisos: Entre 2 al 8,2,123.41 m2,"$ 314,696"
2431,https://nexoinmobiliario.pe/proyecto/venta-de-departamento-2105-midway-magdalena-del-mar-lima-lima-casaideal-inmobiliaria,MIDWAY,-12.087195169127206,-77.06240779846934,"Av. Pershing N° 162, Magdalena del Mar",Magdalena Del Mar,Entrega inmediata,"31 de Octubre, 2023",Banco BCP,"['Areas verdes', 'Cuarto servicio', 'Gimnasio', 'Jardin interior', 'Lobby', 'Sala de Niños', 'Sala de usos Múltiples', 'Terraza', 'Zona de Lavandería', 'Zona de Parrillas', 'Otros']",flat,Tipo 706,Piso: 7,1,50.56 m2,"S/ 386,100"
2553,https://nexoinmobiliario.pe/proyecto/venta-de-departamento-3224-magna-san-miguel-lima-lima-dkasa,Magna,-12.0893057,-77.0806058,Av. Tacna 650,San Miguel,En planos,"30 de Abril, 2026",Banco BANBIF,"['Lobby', 'Sala de usos Múltiples', 'Zona de Parrillas', 'Otros']",flat,X03,Pisos: Entre 2 al 8,3,67.15 m2,"S/ 452,900"
5219,https://nexoinmobiliario.pe/proyecto/venta-de-departamento-3211-las-praderas-chorrillos-lima-lima-tale-inmobiliaria,Las Praderas,-12.1768317,-76.99919310000001,"Av. Los Faisanes 485, Chorrillos 15054",Chorrillos,En planos,"31 de Diciembre, 2026",Otros,"['Gimnasio', 'Jardin de niños', 'Lobby', 'Sala Bar', 'Sala de Niños', 'Sala de usos Múltiples', 'Terraza', 'Zona de Parrillas']",flat,X07,Pisos: Entre 5 al 14,2,53.34 m2,"S/ 265,000"
2307,https://nexoinmobiliario.pe/proyecto/venta-de-departamento-2292-urban-642-jesus-maria-lima-lima-grupo-sol,URBAN 642,-12.088097391748354,-77.05719351106664,av. de la policía 640,Jesus Maria,Entrega inmediata,"31 de Mayo, 2023",Banco BCP,"['Área de juegos para niños', 'Cuarto servicio', 'Lobby']",flat,X04,"Pisos: 5, 6, 7",1,44.54 m2,"S/ 349,000"
1880,https://nexoinmobiliario.pe/proyecto/venta-de-departamento-2678-sauco-la-victoria-lima-lima-abril-grupo-inmobiliario,Sauco,-12.089912318734548,-77.01939531970038,Av. Javier Prado Este 1091,La Victoria,En construcción,"30 de Junio, 2025",Banco BCP,"['Gimnasio', 'Lobby', 'Piscina', 'Sala de usos Múltiples', 'Terraza', 'Zona de Parrillas']",flat,SAU-A-3305,Piso: 33,2,53.56 m2,"S/ 371,851"
6011,https://nexoinmobiliario.pe/proyecto/venta-de-departamento-2232-mar-adriatico-san-miguel-lima-lima-procity,MAR ADRIATICO,-12.07394823255852,-77.09239034773563,Calle Intisuyo 317 San Miguel,San Miguel,En construcción,"30 de Diciembre, 2024",Banco Scotiabank,"['Gimnasio', 'Lobby', 'Sala de usos Múltiples', 'Terraza', 'Video vigilancia', 'Zona de Parrillas']",flat,2 F,Piso: 20,2,71.90 m2,"S/ 447,450"
6277,https://nexoinmobiliario.pe/proyecto/venta-de-departamento-2391-florece-chorrillos-lima-lima-la-muralla,FLORECE,-12.1803506,-77.0016151,"Av. Los Faisanes 222-226, Chorrillos",Chorrillos,En construcción,"31 de Enero, 2025",BBVA,"['Gimnasio', 'Jardin interior', 'Lobby', 'Zona de Parrillas', 'Otros']",flat,1,"Pisos: 4, 9, 10, 11, 12",3,66.60 m2,"S/ 292,500"
4949,https://nexoinmobiliario.pe/proyecto/venta-de-departamento-3189-prime-lince-lima-lima-jk-inversiones-inmobiliarias,PRIME,-12.088412,-77.0474289,av. cesar vallejo 1515,Lince,En construcción,"30 de Abril, 2025",Banco BCP,"['Lobby', 'Sala de usos Múltiples', 'Terraza', 'Zona de Parrillas', 'Otros']",flat,C,"Pisos: 2, 3, 4, 5",3,85.09 m2,"S/ 655,000"
5490,https://nexoinmobiliario.pe/proyecto/venta-de-departamento-3323-aramburu-living-san-isidro-lima-lima-grupo-t&c,ARAMBURU LIVING,-12.102394,-77.0248317,Av. Aramburú 535. San Isidro,San Isidro,En planos,"30 de Abril, 2027",BBVA,"['Gimnasio', 'Lobby', 'Piscina', 'Sala Bar', 'Sala de usos Múltiples', 'Salon Gourmet', 'Terraza', 'Zona de Parrillas', 'Otros']",flat,14,Pisos: Entre 14 al 22,2,68.95 m2,"S/ 495,025"
1073,https://nexoinmobiliario.pe/proyecto/venta-de-departamento-1810-dos-de-mayo-lince-lince-lima-lima-initalia,Dos de Mayo- Lince,-12.090064996564706,-77.03493570273388,Arenales 2570,Lince,Entrega inmediata,"31 de Julio, 2024",Banco Scotiabank,"['Areas verdes', 'Lobby', 'Piscina', 'Sala de usos Múltiples', 'Salon Gourmet', 'Techo Panorámico', 'Techos Ecológicos', 'Terraza', 'Video vigilancia', 'Zona de Lavandería', 'Zona de Parrillas']",flat,T-6,Pisos: Entre 4 al 16,2,53.69 m2,"S/ 423,400"
654,https://nexoinmobiliario.pe/proyecto/venta-de-departamento-2584-arch-two-barranco-lima-lima-arch-inversiones-inmobiliarias,Arch Two,-12.1401798,-77.0138717,Jiron Aurelio Souza 447,Barranco,En construcción,"30 de Septiembre, 2024",Banco Interbank,"['Área de juegos para niños', 'Jardin interior', 'Lobby', 'Sala de usos Múltiples', 'Zona de Lavandería', 'Zona de Parrillas']",flat,X03,Piso: 5,2,51.12 m2,"S/ 334,850"
2478,https://nexoinmobiliario.pe/proyecto/venta-de-departamento-3384-zentro-lince-lima-lima-central-inmobiliaria,ZENTRO,-12.0814558,-77.03416059999999,JR BARTOLOME HERRERA 250 LINCE,Lince,En planos,"31 de Diciembre, 2025",BBVA,"['Lobby', 'Sala de usos Múltiples', 'Terraza', 'Otros']",flat,1A,Piso: 2,1,46.00 m2,"S/ 364,000"
4052,https://nexoinmobiliario.pe/proyecto/venta-de-departamento-2393-lombardia-lince-lima-lima-toratto-grupo-inmobiliario,LOMBARDIA,-12.0813968,-77.03940030000001,Jr. Manuel Gómez N° 390,Lince,En construcción,"31 de Diciembre, 2024",BBVA,"['Área de juegos para niños', 'Lobby', 'Otros']",flat,TIPO L,Piso: 2,3,79.00 m2,"S/ 570,360"
5367,https://nexoinmobiliario.pe/proyecto/venta-de-departamento-2965-santorini-cercado-de-lima-lima-lima-brazil-grupo-inmobiliario,Santorini,-12.073561795487,-77.03112064660345,Av. Alejandro Tirado 731,Cercado de lima,En construcción,"01 de Marzo, 2026",BBVA,"['Área de juegos para niños', 'Areas verdes', 'Boulevard peatonal', 'Gimnasio', 'Jardin interior', 'Lobby', 'Piscina', 'Sala Bar', 'Sala de cine', 'Sala de Niños', 'Sala de usos Múltiples', 'Terraza', 'Video vigilancia', 'Zona de Lavandería', 'Zona de Parrillas', 'Otros']",flat,S49,Pisos: Entre 7 al 30,1,42.71 m2,"S/ 268,849"
3800,https://nexoinmobiliario.pe/proyecto/venta-de-departamento-1955-nerea-pueblo-libre-lima-lima-grupo-caral,Nerea,-12.0719417,-77.0625745,Av. Bolívar Nº 947,Pueblo Libre,En construcción,"31 de Julio, 2025",Banco Scotiabank,"['Gimnasio', 'Lobby', 'Sala de Niños', 'Sala de usos Múltiples', 'Zona de Lavandería', 'Zona de Parrillas', 'Otros']",flat,1D-01,Pisos: Entre 6 al 20,1,41.92 m2,"S/ 295,002"
3233,https://nexoinmobiliario.pe/proyecto/venta-de-departamento-2583-top-818-surquillo-lima-lima-inhouse,TOP 818,-12.1191429,-77.00485929999999,Av principal 818,Surquillo,En construcción,"31 de Diciembre, 2024",Banco Interbank,"['Área de juegos para niños', 'Gimnasio', 'Lobby', 'Sala Bar', 'Sala de Niños', 'Sala de usos Múltiples', 'Terraza', 'Video vigilancia', 'Zona de Parrillas', 'Otros']",flat,204,Piso: 2,2,53.17 m2,"S/ 398,253"
1197,https://nexoinmobiliario.pe/proyecto/venta-de-departamento-2198-amalfi-san-miguel-lima-lima-paz,Amalfi,-12.0808219,-77.10702959999999,Av. Costanera 2558,San Miguel,En construcción,"31 de Julio, 2024",Banco Pichincha,"['Área de juegos para niños', 'Areas verdes', 'Ascensor directo', 'Boulevard peatonal', 'Gimnasio', 'Jardin interior', 'Lobby', 'Piscina', 'Sala Bar', 'Sala de Internet', 'Terraza', 'Zona de Lavandería', 'Zona de Parrillas', 'Otros']",flat,25,"Pisos: 12, 13, 15, 17",3,67.98 m2,"S/ 403,087"
6193,https://nexoinmobiliario.pe/proyecto/venta-de-departamento-2657-urban-miraflores-miraflores-lima-lima-capac-asociados,URBAN MIRAFLORES,-12.1184546,-77.0382403,"General Iglesias 151, Miraflores",Miraflores,En planos,"31 de Octubre, 2025",Banco BCP,"['Areas verdes', 'Lobby', 'Sala de usos Múltiples', 'Techo Panorámico', 'Terraza', 'Zona de Parrillas', 'Otros']",flat,X09,Piso: 10,2,85.00 m2,"S/ 831,579"
763,https://nexoinmobiliario.pe/proyecto/venta-de-departamento-3171-unico-magdalena-magdalena-del-mar-lima-lima-gdc-inmobiliaria,Único Magdalena,-12.0881488,-77.06111229999999,Av. Faustino Sanchez Carrión 280,Magdalena Del Mar,En planos,"31 de Julio, 2026",Financiamiento Propio,"['Gimnasio', 'Lobby', 'Piscina', 'Sala Bar', 'Sala de Niños', 'Sala de usos Múltiples', 'Terraza', 'Zona de Parrillas']",flat,X03,Pisos: Entre 3 al 20,3,69.06 m2,"S/ 491,658"
1974,https://nexoinmobiliario.pe/proyecto/venta-de-departamento-3273-mar-de-grau-chorrillos-lima-lima-2k-inmobiliaria,MAR DE GRAU,-12.1643195,-77.02434960000001,MALECON GRAU 207,Chorrillos,En planos,"25 de Septiembre, 2025",Banco Interbank,"['Lobby', 'Pista para trotarcorrer', 'Techo Panorámico', 'Terraza', 'Video vigilancia', 'Zona de Parrillas']",flat,x01,"Pisos: 3, 5, 7, 8, 9",2,56.63 m2,"S/ 430,000"
2842,https://nexoinmobiliario.pe/proyecto/venta-de-departamento-2244-astoria-jesus-maria-lima-lima-arteco,Astoria,-12.0714477473403,-77.03876676822587,Av. República de Chile 699,Jesus Maria,Entrega inmediata,"01 de Abril, 2024",Banco BCP,"['Área de juegos para niños', 'Gimnasio', 'Jardin de niños', 'Jardin interior', 'Lobby', 'Sala Bar', 'Sala de Internet', 'Sala de Niños', 'Sala de usos Múltiples', 'Terraza', 'Zona de Parrillas', 'Otros']",flat,Tipo 5,Piso: 9,3,67.86 m2,"S/ 568,000"
19,https://nexoinmobiliario.pe/proyecto/venta-de-departamento-3371-nuova-vita-jesus-maria-lima-lima-grupo-sol,NUOVA VITA,-12.078970115666072,-77.0451503940812,Jr. Cahuide 971 Jesús María,Jesus Maria,En planos,"31 de Octubre, 2025",Otros,['Lobby'],flat,104,Piso: 1,3,134.95 m2,"S/ 924,000"
1709,https://nexoinmobiliario.pe/proyecto/venta-de-departamento-1785-pod-departamentos-miraflores-lima-lima-marcan,POD - Departamentos,-12.1166226,-77.04226249999999,Av. La Mar 352,Miraflores,Entrega inmediata,"31 de Diciembre, 2023",BBVA,"['Gimnasio', 'Lobby', 'Piscina', 'Zona de Lavandería', 'Zona de Parrillas', 'Otros']",flat,FLAT 2D I,Piso: 10,2,74.19 m2,"S/ 735,000"
1910,https://nexoinmobiliario.pe/proyecto/venta-de-departamento-2678-sauco-la-victoria-lima-lima-abril-grupo-inmobiliario,Sauco,-12.089912318734548,-77.01939531970038,Av. Javier Prado Este 1091,La Victoria,En construcción,"30 de Junio, 2025",Banco BCP,"['Gimnasio', 'Lobby', 'Piscina', 'Sala de usos Múltiples', 'Terraza', 'Zona de Parrillas']",flat,"SAU-A-402,602,1202,1802,2402,3002",Piso: 4,2,57.20 m2,"S/ 419,128"
13,https://nexoinmobiliario.pe/proyecto/venta-de-departamento-2706-high-line-santiago-de-surco-lima-lima-tribeca-inmobiliaria,HIGH LINE,-12.1159754,-76.9909747,Av. Caminos del Inca 508 esquina con Jr. Cañón del Pato,Santiago De Surco,En construcción,"31 de Diciembre, 2025",BBVA,"['Área de juegos para niños', 'Areas verdes', 'Ascensor directo', 'Gimnasio', 'Jardin de niños', 'Lobby', 'Piscina', 'Sala Bar', 'Salon Gourmet', 'Techos Ecológicos', 'Terraza', 'Zona de Parrillas']",duplex,TIPO 14,Piso: 16,2,116.73 m2,"S/ 913,511"
5067,https://nexoinmobiliario.pe/proyecto/venta-de-departamento-2730-emerald-pueblo-libre-2-pueblo-libre-lima-lima-fai-inmobiliaria,Emerald Pueblo Libre 2,-12.076693493713218,-77.0567324978256,Calle Jose Ugarteche 103 Pueblo Libre,Pueblo Libre,En construcción,"31 de Octubre, 2025",Banco BCP,"['Jardin de niños', 'Lobby', 'Sala Bar', 'Sala de Niños', 'Terraza', 'Video vigilancia', 'Zona de Parrillas', 'Otros']",flat,X11,"Pisos: 3, 4, 5, 7, 9",2,58.96 m2,"S/ 383,512"
4772,https://nexoinmobiliario.pe/proyecto/venta-de-departamento-2819-aliaga-750-magdalena-del-mar-lima-lima-v&v-grupo-inmobiliario,ALIAGA 750,-12.0907667,-77.0577393,juan de aliaga 750,Magdalena Del Mar,En planos,"31 de Julio, 2026",Financiamiento Propio,"['Gimnasio', 'Lobby', 'Piscina', 'Sala Bar', 'Sala de cine', 'Zona de Lavandería', 'Zona de Parrillas']",flat,205,Piso: 2,1,39.50 m2,"S/ 370,000"
2208,https://nexoinmobiliario.pe/proyecto/venta-de-departamento-2507-flamingo-jesus-maria-lima-lima-grupo-tyc,FLAMINGO,-12.0668453,-77.04671429999999,Av. Brasil 737.,Jesus Maria,En construcción,"30 de Septiembre, 2024",Financiamiento Propio,"['Área de juegos para niños', 'Areas verdes', 'Gimnasio', 'Jardin interior', 'Lobby', 'Parque privado', 'Sala de Niños', 'Sala de usos Múltiples', 'Otros']",flat,TIPO 3 B,Pisos: Entre 4 al 12,2,58.00 m2,"S/ 398,964"
3628,https://nexoinmobiliario.pe/proyecto/venta-de-departamento-3237-valle-grande-4-carabayllo-lima-lima-enacorp,VALLE GRANDE 4,-11.862355623377484,-77.05571705709315,Av. San Juan de Dios s/n Paradero Haras - Carabayllo,Carabayllo,En construcción,"01 de Noviembre, 2024",BBVA,"['Área de juegos para niños', 'Areas verdes', 'Parque privado', 'Sala de Niños', 'Sala de usos Múltiples', 'Otros']",flat,TIPO 70,Piso: 3,3,54.87 m2,"S/ 85,695"
718,https://nexoinmobiliario.pe/proyecto/venta-de-departamento-2322-las-palmas-chorrillos-2-chorrillos-lima-lima-besco,Las Palmas Chorrillos 2,-12.17238,-76.9961957,"Jirón Pléyades Nº372, Urb. La Campiña., Límite con Surco.",Chorrillos,Entrega inmediata,"23 de Diciembre, 2023",Banco Interbank,"['Lobby', 'Sala de Niños', 'Sala de usos Múltiples', 'Zona de Parrillas']",flat,TORRE 1-FLAT-TIPO 8,Pisos: 4 y 6,3,68.80 m2,"S/ 326,600"
2378,https://nexoinmobiliario.pe/proyecto/venta-de-departamento-3204-bartolome-herrera-266-santiago-de-surco-lima-lima-inmobiliaria-ayd,Bartolomé Herrera 266,-12.1252695,-76.9844452,Jiron bartolome herrera 266,Santiago De Surco,En construcción,"31 de Julio, 2025",Banco BCP,"['Areas verdes', 'Ascensor directo', 'Lobby']",duplex,TIPO F,Piso: 6,4,222.00 m2,"$ 360,500"
6069,https://nexoinmobiliario.pe/proyecto/venta-de-departamento-2830-entrenos-magdalena-del-mar-lima-lima-promsal,Entrenos,-12.0923286,-77.0721377,jr tacna 655,Magdalena Del Mar,En construcción,"30 de Septiembre, 2025",Banco BCP,"['Área de juegos para niños', 'Areas verdes', 'Gimnasio', 'Jardin de niños', 'Lobby', 'Sala de Internet', 'Terraza', 'Video vigilancia', 'Zona de Parrillas', 'Otros']",flat,1304,Piso: 13,1,89.58 m2,"S/ 543,423"
2262,https://nexoinmobiliario.pe/proyecto/venta-de-departamento-3023-niza-san-borja-lima-lima-ee-inmobiliaria,Niza,-12.0952263,-77.0079105,Av. San Borja Norte. 232,San Borja,En construcción,"30 de Abril, 2025",Banco BCP,['Lobby'],flat,Dpto. 102,Piso: 1,2,49.60 m2,"S/ 420,000"
341,https://nexoinmobiliario.pe/proyecto/venta-de-departamento-1561-ambar-jesus-maria-lima-lima-marte,Ambar,-12.0813709,-77.0587166,Avenida Brasil 2363,Jesus Maria,En construcción,"30 de Junio, 2024",Banco BCP,"['Área de juegos para niños', 'Areas verdes', 'Club House', 'Gimnasio', 'Jardin de niños', 'Lobby', 'Piscina', 'Sala Bar', 'Sala de cine', 'Sala de Niños', 'Sala de usos Múltiples', 'Terraza', 'Video vigilancia', 'Zona de Lavandería', 'Zona de Parrillas', 'Otros']",flat,TIPO 3F,Piso: 26,3,81.50 m2,"S/ 598,509"
5524,https://nexoinmobiliario.pe/proyecto/venta-de-departamento-2199-livorno-lince-lima-lima-toratto-grupo-inmobiliario,LIVORNO,-12.089360918332403,-77.03618155238584,Av. Trinidad Moran 331,Lince,Entrega inmediata,"24 de Junio, 2023","BBVA, Otros","['Areas verdes', 'Lobby']",flat,TIPO J,"Pisos: 2, 3, 7",2,63.04 m2,"S/ 538,992"
6199,https://nexoinmobiliario.pe/proyecto/venta-de-departamento-3077-robles-220-san-isidro-lima-lima-qolono-inmobiliaria,ROBLES 220,-12.09234618992928,-77.04306364948592,ROBLES 220,San Isidro,En planos,"01 de Diciembre, 2025",Banco BCP,"['Areas verdes', 'Lobby', 'Video vigilancia']",flat,TIPICO1,Piso: 6,3,133.23 m2,"$ 355,000"
1805,https://nexoinmobiliario.pe/proyecto/venta-de-departamento-2385-edificio-altaurora-surquillo-lima-lima-la-venturosa,Edificio Altaurora,-12.120276422356577,-77.00656777460695,Tomas marsano 1921,Surquillo,En construcción,"30 de Septiembre, 2024",Banco BCP,"['Sala de Niños', 'Sala de usos Múltiples', 'Techo Panorámico', 'Terraza']",flat,TIPO 2-A,Piso: 1,2,59.54 m2,"S/ 418,407"
5990,https://nexoinmobiliario.pe/proyecto/venta-de-departamento-3363-slim-lince-lima-lima-grupo-tyc,SLIM,-12.080354963790509,-77.0348507088109,"Av. Arequipa 1587, Lince",Lince,En planos,"31 de Diciembre, 2026",Financiamiento Propio,"['Areas verdes', 'Gimnasio', 'Lobby', 'Parque privado', 'Sala Bar', 'Sala de usos Múltiples', 'Salon Gourmet', 'Terraza', 'Zona de Parrillas', 'Otros']",flat,Tipo 13,Piso: 2,1,46.75 m2,"S/ 363,512"
3386,https://nexoinmobiliario.pe/proyecto/venta-de-departamento-3169-milano-28-de-julio-miraflores-lima-lima-binda-y-asociados,Milano - 28 de Julio,-12.126585,-77.03057489999999,Av 28 de Julio 420,Miraflores,En planos,"31 de Marzo, 2026",Banco Scotiabank,"['Gimnasio', 'Minimarket', 'Piscina', 'Terraza', 'Zona de Parrillas']",flat,G,Piso: 11,2,60.34 m2,"S/ 609,752"
279,https://nexoinmobiliario.pe/proyecto/venta-de-departamento-1974-invent-chorrillos-chorrillos-lima-lima-invent,Invent Chorrillos,-12.1661626,-77.0245367,Calle José Olaya 225,Chorrillos,Entrega inmediata,"29 de Febrero, 2024",Banco Interbank,"['Área de juegos para niños', 'Areas verdes', 'Gimnasio', 'Lobby', 'Sala Bar', 'Sala de Internet', 'Sala de Niños', 'Sala de usos Múltiples', 'Terraza', 'Video vigilancia', 'Zona de Lavandería', 'Zona de Parrillas', 'Otros']",flat,Tipo 8-l,Piso: 1,1,52.83 m2,"S/ 351,325"
4073,https://nexoinmobiliario.pe/proyecto/venta-de-departamento-2393-lombardia-lince-lima-lima-toratto-grupo-inmobiliario,LOMBARDIA,-12.0813968,-77.03940030000001,Jr. Manuel Gómez N° 390,Lince,En construcción,"31 de Diciembre, 2024",BBVA,"['Área de juegos para niños', 'Lobby', 'Otros']",flat,TIPO L',Pisos: Entre 4 al 12,1,44.85 m2,"S/ 302,688"
1833,https://nexoinmobiliario.pe/proyecto/venta-de-departamento-2596-legado-jesus-maria-lima-lima-invent,LEGADO,-12.0820984,-77.0499681,"Jesús María, Av San Felipe 785 -787",Jesus Maria,En planos,"31 de Diciembre, 2025",BBVA,"['Área de juegos para niños', 'Gimnasio', 'Karaoke', 'Piscina', 'Sala de Niños', 'Terraza', 'Zona de Lavandería', 'Otros']",flat,1,Pisos: Entre 2 al 21,2,57.18 m2,"S/ 451,191"
3269,https://nexoinmobiliario.pe/proyecto/venta-de-departamento-2121-amancae-miraflores-lima-lima-abril-grupo-inmobiliario,Amancae,-12.1192905,-77.0393519,Av. Pardo 1051,Miraflores,Entrega inmediata,"29 de Marzo, 2024",Banco Scotiabank,"['Areas verdes', 'Gimnasio', 'Jardin interior', 'Lobby', 'Sala de Niños', 'Sala de usos Múltiples', 'Techos Ecológicos', 'Terraza', 'Zona de Parrillas', 'Otros']",flat,AMA-A-304,Piso: 3,3,83.34 m2,"S/ 681,388"
4979,https://nexoinmobiliario.pe/proyecto/venta-de-departamento-3180-mum-363-magdalena-del-mar-lima-lima-tale-inmobiliaria,MUM 363,-12.0949881,-77.0552728,Av. Javier Prado Oeste 2291,Magdalena Del Mar,En planos,"31 de Diciembre, 2026",Otros,"['Área de juegos para niños', 'Gimnasio', 'Lobby', 'Piscina', 'Sala de Niños', 'Salon Gourmet', 'Zona de Parrillas', 'Otros']",flat,X11-A,Pisos: 2 y 4,2,61.56 m2,"S/ 493,000"
4280,https://nexoinmobiliario.pe/proyecto/venta-de-departamento-3025-centrix-28-miraflores-lima-lima-ee-inmobiliaria,Centrix 28,-12.12972221149553,-77.0214986734462,AV. 28 de Julio 1109 con Cl. Francisco del Castillo N° 359 - 365,Miraflores,En planos,"31 de Julio, 2026",Banco BCP,"['Gimnasio', 'Lobby', 'Terraza', 'Zona de Parrillas']",flat,Dpto. 510,Piso: 5,2,69.82 m2,"S/ 551,000"
6446,https://nexoinmobiliario.pe/proyecto/venta-de-departamento-2668-tradiciones-prime-miraflores-lima-lima-grupo-cygnus,Tradiciones Prime,-12.1202885,-77.02165880000001,Calle General vargas machuca 246,Miraflores,Entrega inmediata,"31 de Agosto, 2023",Banco BCP,[],flat,202,Piso: 2,3,130.35 m2,"S/ 1,174,289"
2557,https://nexoinmobiliario.pe/proyecto/venta-de-departamento-3224-magna-san-miguel-lima-lima-dkasa,Magna,-12.0893057,-77.0806058,Av. Tacna 650,San Miguel,En planos,"30 de Abril, 2026",Banco BANBIF,"['Lobby', 'Sala de usos Múltiples', 'Zona de Parrillas', 'Otros']",flat,906,Piso: 9,3,73.40 m2,"S/ 483,060"
4511,https://nexoinmobiliario.pe/proyecto/venta-de-departamento-3167-hometown-condominio-san-borja-lima-lima-esparq-inversiones,Hometown Condominio,-12.0940626,-76.9894345,Durero 490 san borja,San Borja,En construcción,"30 de Mayo, 2025",BBVA,"['Área de juegos para niños', 'Areas verdes', 'Gimnasio', 'Jardin de niños', 'Jardin interior', 'Lobby', 'Piscina', 'Sala de Internet', 'Sala de Niños', 'Sala de usos Múltiples', 'Salon Gourmet']",flat,TORRE K TIPO 11I,Pisos: 2 y 3,3,124.51 m2,"$ 267,000"
6256,https://nexoinmobiliario.pe/proyecto/venta-de-departamento-3346-kauri-pueblo-libre-lima-lima-abril-grupo-inmobiliario,Kaurí,-12.0778469,-77.06881729999999,Av Manuel Cipriano Dulanto 1351,Pueblo Libre,En planos,"30 de Noviembre, 2026",Banco Scotiabank,"['Gimnasio', 'Lobby', 'Piscina', 'Sala de Niños', 'Sala de usos Múltiples', 'Zona de Parrillas']",flat,KAU - 208,Piso: 2,2,53.04 m2,"S/ 356,064"
761,https://nexoinmobiliario.pe/proyecto/venta-de-departamento-2219-mozz-san-isidro-lima-lima-valico,Mozz,-12.0981572,-77.0319237,Odriozola 126,San Isidro,Entrega inmediata,"31 de Diciembre, 2022",Banco BCP,"['Areas verdes', 'Gimnasio', 'Sala de usos Múltiples']",flat,X05,Pisos: 5 y 7,2,60.12 m2,"$ 159,919"
2352,https://nexoinmobiliario.pe/proyecto/venta-de-departamento-3381-novo-3-cercado-de-lima-lima-lima-my-home,NOVO 3,-12.0732836,-77.03092219999999,jirón José Gálvez 950,Cercado de lima,En planos,"15 de Diciembre, 2026",Banco Scotiabank,"['Gimnasio', 'Jardin interior', 'Lobby', 'Sala de usos Múltiples', 'Terraza', 'Zona de Lavandería', 'Zona de Parrillas', 'Otros']",flat,Tipo 2 B,Pisos: Entre 4 al 22,2,51.00 m2,"S/ 369,000"
2237,https://nexoinmobiliario.pe/proyecto/venta-de-departamento-2714-like-one-san-miguel-lima-lima-granadero-inmobiliaria,Like One,-12.079547136588465,-77.08210600616377,Av. Universitaria 845 San Miguel,San Miguel,En construcción,"30 de Noviembre, 2024",Banco BCP,"['Gimnasio', 'Jardin interior', 'Lobby', 'Piscina', 'Sala de usos Múltiples', 'Terraza', 'Zona de Parrillas']",flat,4,Pisos: Entre 4 al 22,2,66.37 m2,"S/ 464,590"
4891,https://nexoinmobiliario.pe/proyecto/venta-de-departamento-3067-cosmos-miraflores-lima-lima-llosa-edificaciones-urban,COSMOS,-12.118554202086711,-77.03987712638173,óvalo julio ramon ribeyro,Miraflores,En planos,"30 de Julio, 2026",Financiamiento Propio,"['Gimnasio', 'Lobby', 'Sala Bar', 'Sala de Internet', 'Salon Gourmet', 'Terraza', 'Zona de Lavandería', 'Zona de Parrillas', 'Otros']",flat,14b,Piso: 18,2,90.00 m2,"$ 276,840"
448,https://nexoinmobiliario.pe/proyecto/venta-de-departamento-2849-vivapark-san-miguel-lima-lima-ecohabitat-desarrollo-inmobiliario,Vivapark,-12.0744566,-77.0959596,Alfredo Icaza Contreras 185,San Miguel,En planos,"01 de Noviembre, 2025",Banco BANBIF,"['Lobby', 'Otros']",duplex,TIPO D03,Piso: 9,2,74.03 m2,"S/ 393,275"
2785,https://nexoinmobiliario.pe/proyecto/venta-de-departamento-2452-soil-pueblo-libre-pueblo-libre-lima-lima-verdant-inmobiliaria,Soil Pueblo Libre,-12.0838136,-77.0657512,Av. La Marina 425,Pueblo Libre,En construcción,"30 de Junio, 2025",Banco Interbank,"['Área de juegos para niños', 'Gimnasio', 'Jardin de niños', 'Karaoke', 'Lobby', 'Minimarket', 'Sala Bar', 'Sala de Internet', 'Sala de Niños', 'Sala de usos Múltiples', 'Techo Panorámico', 'Terraza', 'Video vigilancia', 'Zona de Lavandería', 'Zona de Parrillas', 'Otros']",flat,4,Pisos: Entre 3 al 10,1,38.20 m2,"S/ 284,000"
3293,https://nexoinmobiliario.pe/proyecto/venta-de-departamento-2465-mama-ocllo-lince-lima-lima-flat,MAMA OCLLO,-12.0852268,-77.043916,Jr. Mama Ocllo 1937,Lince,Entrega inmediata,"15 de Julio, 2024",Banco Interbank,"['Gimnasio', 'Lobby', 'Sala Bar', 'Sala de usos Múltiples', 'Terraza', 'Zona de Parrillas', 'Otros']",flat,TIPO2,Pisos: Entre 6 al 12,3,65.29 m2,"S/ 481,000"
1983,https://nexoinmobiliario.pe/proyecto/venta-de-departamento-3394-vision-prado-san-borja-lima-lima-inmovision,VISIÓN PRADO,-12.0883805,-77.0028373,Av. Javier Prado Este 2232,San Borja,En planos,"31 de Agosto, 2026",Otros,"['Gimnasio', 'Lobby', 'Sala de usos Múltiples', 'Salon Gourmet', 'Techo Panorámico', 'Zona de Lavandería', 'Zona de Parrillas', 'Otros']",flat,101,Piso: 1,1,48.75 m2,"S/ 386,273"
4349,https://nexoinmobiliario.pe/proyecto/venta-de-departamento-3197-luzzo-family-homes-cerro-colorado-arequipa-arequipa-anden,LUZZO Family Homes,-16.3702875,-71.5564844,"JCHV+VCJ, Arequipa 04017",Cerro Colorado,En planos,"31 de Diciembre, 2025",Otros,"['Área de juegos para niños', 'Gimnasio', 'Jardin de niños', 'Lobby', 'Sala Bar', 'Sala de Internet', 'Sala de usos Múltiples', 'Techo Panorámico', 'Terraza', 'Video vigilancia', 'Zona de Parrillas', 'Otros']",flat,T11,Piso: 10,3,141.51 m2,"$ 157,397"
3113,https://nexoinmobiliario.pe/proyecto/venta-de-departamento-2906-pedro-venturo-662-santiago-de-surco-lima-lima-venti-grupo-inmobiliario,Pedro Venturo 662,-12.1235511,-76.99115019999999,"Pedro Venturo 662, Urbanización Higuereta, Santiago de Surco",Santiago De Surco,En construcción,"31 de Marzo, 2025",Banco BCP,"['Areas verdes', 'Ascensor directo', 'Lobby', 'Techos Ecológicos', 'Video vigilancia', 'Otros']",flat,TIPO D,"Pisos: 2, 3, 4, 5, 6",2,94.00 m2,"$ 184,000"
3863,https://nexoinmobiliario.pe/proyecto/venta-de-departamento-2815-tower-27-lince-lima-lima-triada,TOWER 27,-12.09032933056538,-77.032358920106,Petit Thouars 2705,Lince,En planos,"31 de Diciembre, 2025",Banco Interbank,"['Jardin interior', 'Lobby', 'Sala Bar', 'Sala de Niños', 'Sala de usos Múltiples', 'Terraza', 'Video vigilancia', 'Zona de Parrillas']",flat,TIPO 1,Pisos: Entre 7 al 17,3,67.53 m2,"S/ 509,802"
90,https://nexoinmobiliario.pe/proyecto/venta-de-departamento-1075-gallery-san-isidro-lima-lima-grupo-t&c,GALLERY,-12.0953578,-77.0536753,Av. Javier Prado Oeste 2173-2177-2165,San Isidro,Entrega inmediata,"01 de Enero, 2023",Financiamiento Propio,"['Área de juegos para niños', 'Areas verdes', 'Gimnasio', 'Jardin de niños', 'Jardin interior', 'Lobby', 'Piscina', 'Sala de usos Múltiples', 'Salon Gourmet', 'Terraza', 'Zona de Parrillas', 'Otros']",flat,TIPO 1,Piso: 11,3,118.18 m2,"S/ 959,887"
1494,https://nexoinmobiliario.pe/proyecto/venta-de-departamento-2855-visum-san-isidro-lima-lima-urbalima,VISUM,-12.0934403,-77.0328272,Calle Plaza Padre Constancio Bollar 205,San Isidro,En planos,"06 de Junio, 2026",BBVA,"['Gimnasio', 'Lobby', 'Terraza', 'Zona de Parrillas', 'Otros']",flat,X01C,Pisos: 18 y 19,2,56.72 m2,"S/ 455,570"
6204,https://nexoinmobiliario.pe/proyecto/venta-de-departamento-2046-madero-san-miguel-lima-lima-ciudaris,MADERO,-12.0785852,-77.0951022,AV. PATRIOTAS 171,San Miguel,Entrega inmediata,"31 de Marzo, 2023",BBVA,"['Jardin interior', 'Lobby', 'Sala de usos Múltiples', 'Terraza', 'Zona de Parrillas', 'Otros']",flat,Tipo 3,Piso: 8,2,57.35 m2,"S/ 413,000"
908,https://nexoinmobiliario.pe/proyecto/venta-de-departamento-3027-qantua-cercado-de-lima-lima-lima-grupo-lar,Qantua,-12.0564006,-77.035479,jr lampa 1237,Cercado de lima,En planos,"31 de Diciembre, 2025","BBVA, Otros","['Área de juegos para niños', 'Areas verdes', 'Lobby', 'Parque privado', 'Sala de usos Múltiples', 'Otros']",flat,1E - B,Piso: 1,3,62.22 m2,"S/ 479,213"
5326,https://nexoinmobiliario.pe/proyecto/venta-de-departamento-1877-casaparq-monterrico-santiago-de-surco-lima-lima-cissac,Casaparq Monterrico,-12.105868458685965,-76.97826114453925,Cruce de Cristobal de Peralta norte esquina con Jerónimo de Aliaga norte Chacarilla,Santiago De Surco,Entrega inmediata,"01 de Julio, 2023",Banco BANBIF,"['Área de juegos para niños', 'Areas verdes', 'Gimnasio', 'Jardin de niños', 'Lobby', 'Parque privado', 'Piscina', 'Pista para trotarcorrer', 'Sala de cine', 'Sala de Niños', 'Sala de usos Múltiples', 'Terraza', 'Video vigilancia', 'Zona de Lavandería', 'Zona de Parrillas', 'Otros']",flat,1,Piso: 11,3,120.40 m2,"S/ 1,167,305"
5900,https://nexoinmobiliario.pe/proyecto/venta-de-departamento-2065-pinos-san-isidro-lima-lima-actual,Pinos,-12.0954457,-77.0365496,Calle Los Pinos 561,San Isidro,Entrega inmediata,"31 de Diciembre, 2023",Banco BCP,"['Gimnasio', 'Lobby', 'Sala de usos Múltiples', 'Terraza', 'Zona de Lavandería', 'Zona de Parrillas', 'Otros']",flat,A - SS03,Piso:,1,53.27 m2,"S/ 575,900"
5321,https://nexoinmobiliario.pe/proyecto/venta-de-departamento-2861-mixxo-chorrillos-lima-lima-avenir-grupo-inmobiliario,MIXXO,-12.1805254,-77.0015638,Av. Los Faisanes 204 - Chorrillos,Chorrillos,En planos,"30 de Agosto, 2025",Banco Interbank,"['Área de juegos para niños', 'Boulevard peatonal', 'Jardin interior', 'Lobby', 'Sala de usos Múltiples', 'Salon Gourmet', 'Terraza', 'Zona de Lavandería', 'Zona de Parrillas', 'Otros']",flat,FLAT X01B,Pisos: Entre 2 al 12,3,65.60 m2,"S/ 348,000"
3708,https://nexoinmobiliario.pe/proyecto/venta-de-departamento-2354-artline-barranco-lima-lima-edifica,Artline,-12.1401007,-77.022128,"Av. Miguel Grau 1130, Barranco",Barranco,Entrega inmediata,"30 de Junio, 2024",Banco BCP,"['Gimnasio', 'Jardin interior', 'Lobby', 'Piscina', 'Sala Bar', 'Terraza', 'Zona de Lavandería', 'Zona de Parrillas', 'Otros']",duplex,Tipo 25,Piso: 22,2,109.15 m2,"S/ 960,058"
1003,https://nexoinmobiliario.pe/proyecto/venta-de-departamento-3202-supra-tower-san-miguel-lima-lima-quatro-inmobiliaria,Supra Tower,-12.0769686,-77.0985535,Avenida Los Patriotas 415,San Miguel,En planos,"30 de Junio, 2026",Banco BCP,"['Gimnasio', 'Jardin de niños', 'Karaoke', 'Lobby', 'Piscina', 'Sala Bar', 'Sala de Niños', 'Sala de usos Múltiples', 'Terraza', 'Zona de Parrillas']",flat,P,Pisos: Entre 6 al 20,2,55.00 m2,"S/ 340,996"
2092,https://nexoinmobiliario.pe/proyecto/venta-de-departamento-2764-san-felipe-1190-jesus-maria-lima-lima-v&v-grupo-inmobiliario,SAN FELIPE 1190,-12.081844716493183,-77.04611061233837,av. san felipe 1190,Jesus Maria,En planos,"31 de Diciembre, 2025",Banco Interbank,"['Gimnasio', 'Jardin interior', 'Lobby', 'Piscina', 'Sala de usos Múltiples', 'Salon Gourmet', 'Terraza', 'Zona de Parrillas', 'Otros']",flat,Tipo 205,Piso: 2,1,51.00 m2,"S/ 418,000"
6266,https://nexoinmobiliario.pe/proyecto/venta-de-departamento-3346-kauri-pueblo-libre-lima-lima-abril-grupo-inmobiliario,Kaurí,-12.0778469,-77.06881729999999,Av Manuel Cipriano Dulanto 1351,Pueblo Libre,En planos,"30 de Noviembre, 2026",Banco Scotiabank,"['Gimnasio', 'Lobby', 'Piscina', 'Sala de Niños', 'Sala de usos Múltiples', 'Zona de Parrillas']",flat,KAU - 310 AL 2010,Pisos: Entre 4 al 20,1,40.54 m2,"S/ 256,462"
3324,https://nexoinmobiliario.pe/proyecto/venta-de-departamento-2985-toscanini-san-borja-lima-lima-rb-arquitectura,Toscanini,-12.107221696946526,-76.99606775572894,CALLE TOSCANINI 129,San Borja,En planos,"31 de Enero, 2025",Banco BCP,['Lobby'],flat,tipo 1,Piso: 2,3,90.03 m2,"S/ 792,000"
4970,https://nexoinmobiliario.pe/proyecto/venta-de-departamento-3180-mum-363-magdalena-del-mar-lima-lima-tale-inmobiliaria,MUM 363,-12.0949881,-77.0552728,Av. Javier Prado Oeste 2291,Magdalena Del Mar,En planos,"31 de Diciembre, 2026",Otros,"['Área de juegos para niños', 'Gimnasio', 'Lobby', 'Piscina', 'Sala de Niños', 'Salon Gourmet', 'Zona de Parrillas', 'Otros']",flat,X02,Pisos: Entre 2 al 17,3,77.39 m2,"S/ 620,000"
3949,https://nexoinmobiliario.pe/proyecto/venta-de-departamento-2744-alborada-ii-san-miguel-lima-lima-grupo-mg,ALBORADA II,-12.085065492036632,-77.09353208541872,Av. La Paz 1147,San Miguel,En construcción,"31 de Diciembre, 2024",Banco Interbank,"['Jardin de niños', 'Sala de usos Múltiples', 'Terraza']",flat,8,"Pisos: 3, 4, 12, 13",2,53.50 m2,"S/ 295,150"
6443,https://nexoinmobiliario.pe/proyecto/venta-de-departamento-2573-malecon-acacias-miraflores-lima-lima-aurora-grupo-inmobiliario,Malecón Acacias,-12.1352462,-77.0266118,Calle Las Acacias N° 230,Miraflores,En construcción,"31 de Enero, 2025",BBVA,[],flat,101,Piso: 1,2,94.00 m2,"$ 297,100"
4545,https://nexoinmobiliario.pe/proyecto/venta-de-departamento-3358-central-home-chacarilla-santiago-de-surco-lima-lima-ee-inmobiliaria,Central Home Chacarilla,-12.112760461149128,-76.99036037001652,Cl. Monterrey 319,Santiago De Surco,En planos,"31 de Octubre, 2025",Banco BCP,"['Gimnasio', 'Lobby', 'Terraza', 'Zona de Lavandería', 'Zona de Parrillas']",flat,Dpto. 101,Piso: 1,1,54.92 m2,"$ 121,000"
1995,https://nexoinmobiliario.pe/proyecto/venta-de-departamento-2132-amarelo-jesus-maria-lima-lima-abril-grupo-inmobiliario,Amarelo,-12.0820967,-77.05922509999999,Av. Brasil 2475,Jesus Maria,Entrega inmediata,"31 de Diciembre, 2023",Banco Interbank,"['Área de juegos para niños', 'Gimnasio', 'Jardin de niños', 'Lobby', 'Piscina', 'Sala de Niños', 'Sala de usos Múltiples']",flat,AM X09B,"Pisos: 22, 25, 26",2,61.57 m2,"S/ 400,295"
1281,https://nexoinmobiliario.pe/proyecto/venta-de-departamento-2029-principal-775-surquillo-lima-lima-real-inmobiliaria,Principal 775,-12.118654526927015,-77.00478384477641,Av. Principal 775,Surquillo,Entrega inmediata,"31 de Agosto, 2023",BBVA,"['Lobby', 'Sala de usos Múltiples', 'Terraza', 'Zona de Parrillas', 'Otros']",flat,Tipo 7,Pisos: 13 y 17,3,68.14 m2,"S/ 485,000"
5244,https://nexoinmobiliario.pe/proyecto/venta-de-departamento-3010-lima-barranco-lima-lima-capac-asociados,LIMA,-12.1442897,-77.0231719,Av. San Martín 217,Barranco,En planos,"30 de Septiembre, 2025",Financiamiento Propio,"['Lobby', 'Otros']",flat,X104,Piso: 1,1,62.75 m2,"S/ 517,097"
407,https://nexoinmobiliario.pe/proyecto/venta-de-departamento-2905-bravo-san-borja-lima-lima-grupo-mg,Bravo,-12.102983625557233,-77.01111322460335,Av. Parque Sur 750,San Borja,En construcción,"31 de Mayo, 2025",Banco BCP,"['Gimnasio', 'Lobby', 'Piscina', 'Sala Bar', 'Terraza']",flat,5 -III,"Pisos: 10, 11, 12",3,76.58 m2,"S/ 677,165"
3447,https://nexoinmobiliario.pe/proyecto/venta-de-departamento-3321-centriqo-club-condominio-ecoamigable-cercado-de-lima-lima-lima-besco,CENTRIQO CLUB CONDOMINIO ECOAMIGABLE,-12.0574916,-77.0658071,Av. Republica De Venezuela 2505,Cercado de lima,En planos,"30 de Septiembre, 2025",Banco Interbank,"['Área de juegos para niños', 'Areas verdes', 'Cancha de Fulbito', 'Club House', 'Gimnasio', 'Jardin de niños', 'Karaoke', 'Lobby', 'Piscina', 'Sala de Niños', 'Sala de usos Múltiples', 'Zona de Parrillas', 'Otros']",flat,TORRE 8-FLAT-TIPO 3,Piso: 2,3,71.54 m2,"S/ 335,800"
3732,https://nexoinmobiliario.pe/proyecto/venta-de-departamento-3112-luxo-san-isidro-lima-lima-urbana-per%C3%BA,Luxo,-12.1047374,-77.0384782,Avenida Manuel Roaud y Paz Soldan 364,San Isidro,En planos,"31 de Mayo, 2026",Banco BCP,"['Gimnasio', 'Jardin interior', 'Lobby', 'Piscina', 'Sala de usos Múltiples', 'Terraza', 'Zona de Parrillas']",flat,102,Piso: 1,1,66.07 m2,"S/ 505,203"
6015,https://nexoinmobiliario.pe/proyecto/venta-de-departamento-3378-altavista-aranibar-san-isidro-lima-lima-tale-inmobiliaria,Altavista Aranibar,-12.1082124,-77.0533631,"Av. Augusto Perez Aranibar 1560, San Isidro",San Isidro,En planos,"30 de Junio, 2027",Otros,"['Gimnasio', 'Jardin de niños', 'Lobby', 'Piscina', 'Zona de Lavandería', 'Zona de Parrillas', 'Otros']",flat,TIPO 1,Pisos: Entre 2 al 22,3,95.57 m2,"$ 221,000"
468,https://nexoinmobiliario.pe/proyecto/venta-de-departamento-1631-aspiria-barranco-lima-lima-grupo-t&c,ASPIRIA,-12.139487578321152,-77.01943345939085,Av. El Sol Este 530,Barranco,En construcción,"31 de Julio, 2026",Financiamiento Propio,"['Área de juegos para niños', 'Areas verdes', 'Gimnasio', 'Lobby', 'Piscina', 'Sala de usos Múltiples', 'Salon Gourmet', 'Zona de Parrillas']",flat,TIPO 10,Pisos: Entre 2 al 13,2,42.12 m2,"S/ 386,117"
2452,https://nexoinmobiliario.pe/proyecto/venta-de-departamento-2785-torre-paino-surquillo-lima-lima-tale-inmobiliaria,TORRE PAINO,-12.1027396,-77.0239488,"Avenida Aramburú 668, Surquillo",Surquillo,En construcción,"31 de Diciembre, 2025",Financiamiento Propio,"['Área de juegos para niños', 'Gimnasio', 'Jardin interior', 'Lobby', 'Piscina', 'Sala Bar', 'Sala de cine', 'Sala de Niños', 'Sala de usos Múltiples', 'Terraza', 'Zona de Parrillas']",flat,X10,Pisos: Entre 3 al 22,2,66.54 m2,"S/ 460,000"
4191,https://nexoinmobiliario.pe/proyecto/venta-de-departamento-2964-look-surquillo-surquillo-lima-lima-mahpsa--corporacion-inmobiliaria,Look Surquillo,-12.1193131,-77.0189623,Av. Mariscal Cáceres 621,Surquillo,En construcción,"30 de Septiembre, 2024",Banco BCP,"['Lobby', 'Piscina', 'Sala de cine', 'Sala de Internet', 'Sala de Niños', 'Salon Gourmet', 'Terraza', 'Zona de Lavandería', 'Zona de Parrillas']",flat,x10,Pisos: 8 y 17,1,35.60 m2,"S/ 263,796"
217,https://nexoinmobiliario.pe/proyecto/venta-de-departamento-3397-zircon-jesus-maria-lima-lima-marte,Zircon,-12.0708776,-77.04226390000001,Jr. Nazca 704,Jesus Maria,En planos,"31 de Diciembre, 2026",Banco BCP,"['Lobby', 'Piscina', 'Sala de usos Múltiples', 'Zona de Parrillas']",flat,Tipo 2,Pisos: Entre 2 al 21,3,77.52 m2,"S/ 620,780"
4065,https://nexoinmobiliario.pe/proyecto/venta-de-departamento-2393-lombardia-lince-lima-lima-toratto-grupo-inmobiliario,LOMBARDIA,-12.0813968,-77.03940030000001,Jr. Manuel Gómez N° 390,Lince,En construcción,"31 de Diciembre, 2024",BBVA,"['Área de juegos para niños', 'Lobby', 'Otros']",flat,TIPO D',Pisos: Entre 3 al 12,2,64.84 m2,"S/ 461,186"
283,https://nexoinmobiliario.pe/proyecto/venta-de-departamento-1974-invent-chorrillos-chorrillos-lima-lima-invent,Invent Chorrillos,-12.1661626,-77.0245367,Calle José Olaya 225,Chorrillos,Entrega inmediata,"29 de Febrero, 2024",Banco Interbank,"['Área de juegos para niños', 'Areas verdes', 'Gimnasio', 'Lobby', 'Sala Bar', 'Sala de Internet', 'Sala de Niños', 'Sala de usos Múltiples', 'Terraza', 'Video vigilancia', 'Zona de Lavandería', 'Zona de Parrillas', 'Otros']",flat,Tipo 4,"Pisos: 1, 2, 8",1,69.04 m2,"S/ 419,409"
1224,https://nexoinmobiliario.pe/proyecto/venta-de-departamento-2263-jomy-pueblo-libre-lima-lima-avenir-grupo-inmobiliario,JOMY,-12.067287797442471,-77.05720960349343,"Av. Rio Grande 320, Pueblo Libre",Pueblo Libre,En construcción,"31 de Diciembre, 2024",BBVA,"['Areas verdes', 'Gimnasio', 'Lobby', 'Parque privado', 'Sala Bar', 'Sala de Niños', 'Salon Gourmet', 'Terraza', 'Zona de Parrillas', 'Otros']",flat,X05,Piso: 16,1,57.15 m2,"S/ 340,000"
2698,https://nexoinmobiliario.pe/proyecto/venta-de-departamento-2304-acacias-del-chipe-piura-piura-piura-edifica,Acacias del Chipe,-5.183968,-80.6577985,Prolongación los Tallanes S/N,Piura,En construcción,"01 de Agosto, 2024",Financiamiento Propio,"['Areas verdes', 'Lobby']",flat,Tipo 4,Piso: 2,3,77.54 m2,"S/ 351,140"
3604,https://nexoinmobiliario.pe/proyecto/venta-de-departamento-3237-valle-grande-4-carabayllo-lima-lima-enacorp,VALLE GRANDE 4,-11.862355623377484,-77.05571705709315,Av. San Juan de Dios s/n Paradero Haras - Carabayllo,Carabayllo,En construcción,"01 de Noviembre, 2024",BBVA,"['Área de juegos para niños', 'Areas verdes', 'Parque privado', 'Sala de Niños', 'Sala de usos Múltiples', 'Otros']",flat,TIPO 46,Piso: 2,3,54.74 m2,"S/ 85,695"
5960,https://nexoinmobiliario.pe/proyecto/venta-de-departamento-2763-belisario-967-lince-lima-lima-grupo-sol,Belisario 967,-12.0832017,-77.0444768,Jiron Belisario flores 967 - 973,Lince,En construcción,"31 de Diciembre, 2024",BBVA,"['Área de juegos para niños', 'Sala de usos Múltiples', 'Terraza', 'Zona de Parrillas']",flat,1002,Piso: 10,3,80.11 m2,"S/ 555,000"
5525,https://nexoinmobiliario.pe/proyecto/venta-de-departamento-2199-livorno-lince-lima-lima-toratto-grupo-inmobiliario,LIVORNO,-12.089360918332403,-77.03618155238584,Av. Trinidad Moran 331,Lince,Entrega inmediata,"24 de Junio, 2023","BBVA, Otros","['Areas verdes', 'Lobby']",flat,TIPO L,Piso: 8,3,147.16 m2,"S/ 1,043,926"
2681,https://nexoinmobiliario.pe/proyecto/venta-de-departamento-3338-empire-san-isidro-lima-lima-redbay-inmobiliaria,EMPIRE,-12.0959094,-77.0354488,Av. Camino Real 295,San Isidro,En planos,"30 de Noviembre, 2026",BBVA,"['Jardin interior', 'Lobby', 'Sala de Internet', 'Sala de usos Múltiples', 'Terraza', 'Otros']",flat,5,Pisos: Entre 2 al 7,2,60.63 m2,"S/ 731,900"
2812,https://nexoinmobiliario.pe/proyecto/venta-de-departamento-3403-aliaga-442-magdalena-del-mar-lima-lima-vive-plm,ALIAGA 442,-12.0953729,-77.0593799,JUAN DE ALIAGA 442,Magdalena Del Mar,En planos,"31 de Diciembre, 2025",BBVA,"['Área de juegos para niños', 'Lobby', 'Piscina', 'Sala Bar', 'Sala de Niños', 'Sala de usos Múltiples', 'Salon Gourmet', 'Terraza', 'Zona de Parrillas', 'Otros']",flat,T 11C,"Pisos: 3, 5, 7, 9",3,73.80 m2,"S/ 610,880"
